{"numUsers": 93, "state": "Toscana", "gadmCity": "Florence", "categories": [{"primary": true, "id": "4bf58dd8d48988d16d941735", "name": "Caf\u00e9"}], "coordinates": [11.2461110437842, 43.775078390834665], "city": "Firenze", "country": "Italia", "numTips": 2, "foursquareURL": "https://foursquare.com/v/caff%C3%A9-l-angolo/4b1afbb5f964a520d1f523e3", "numCheckins": 135, "_id": "4b1afbb5f964a520d1f523e3", "name": "Caff\u00e9 l' Angolo"}
{"numUsers": 547, "state": "Toscana", "gadmCity": "Florence", "foursquareURL": "https://foursquare.com/v/mercato-di-santambrogio/4b1cc2a2f964a5207d0924e3", "coordinates": [11.266873636573125, 43.770549212667206], "city": "Firenze", "country": "Italia", "numTips": 16, "numCheckins": 1342, "_id": "4b1cc2a2f964a5207d0924e3", "name": "Mercato di Sant'Ambrogio", "categories": [{"primary": true, "id": "50be8ee891d4fa8dcc7199a7", "name": "Market"}], "postalCode": "50122"}
{"numUsers": 526, "state": "Toscana", "gadmCity": "Florence", "foursquareURL": "https://foursquare.com/v/pop-caf%C3%A9/4b1d4b15f964a5204f0e24e3", "coordinates": [11.247167587280273, 43.76653817741828], "city": "Firenze", "country": "Italia", "numTips": 10, "numCheckins": 1020, "_id": "4b1d4b15f964a5204f0e24e3", "name": "Pop Caf\u00e9", "categories": [{"primary": true, "id": "4bf58dd8d48988d16d941735", "name": "Caf\u00e9"}], "postalCode": "50125"}
{"numUsers": 694, "state": "Toscana", "gadmCity": "Florence", "foursquareURL": "https://foursquare.com/v/fiaschetteria-trattoria-mario/4b1e25fbf964a5209f1724e3", "coordinates": [11.254295, 43.776554], "city": "Firenze", "country": "Italia", "numTips": 37, "numCheckins": 801, "_id": "4b1e25fbf964a5209f1724e3", "name": "Fiaschetteria Trattoria Mario", "categories": [{"primary": true, "id": "4bf58dd8d48988d1cc941735", "name": "Steakhouse"}], "postalCode": "50123"}
{"numUsers": 31179, "state": "Toscana", "gadmCity": "Florence", "foursquareURL": "https://foursquare.com/v/stazione-firenze-santa-maria-novella/4b1e54c2f964a520d51824e3", "coordinates": [11.24776840209961, 43.776811120195255], "city": "Firenze", "country": "Italia", "numTips": 225, "numCheckins": 77592, "_id": "4b1e54c2f964a520d51824e3", "name": "Stazione Firenze Santa Maria Novella", "categories": [{"primary": true, "id": "4bf58dd8d48988d129951735", "name": "Train Station"}], "postalCode": "50123"}
{"numUsers": 2051, "state": "Toscana", "gadmCity": "Florence", "categories": [{"primary": true, "id": "4bf58dd8d48988d110941735", "name": "Italian Restaurant"}], "coordinates": [11.25050564164841, 43.767213030953286], "city": "Firenze", "country": "Italia", "numTips": 160, "foursquareURL": "https://foursquare.com/v/trattoria-4-leoni/4b24a968f964a520496924e3", "numCheckins": 2300, "_id": "4b24a968f964a520496924e3", "name": "Trattoria 4 Leoni"}
{"numUsers": 6836, "state": "Toscana", "gadmCity": "Florence", "categories": [{"primary": true, "id": "4bf58dd8d48988d164941735", "name": "Plaza"}], "coordinates": [11.261405, 43.768851], "city": "Firenze", "country": "Italia", "numTips": 71, "foursquareURL": "https://foursquare.com/v/piazza-santa-croce/4b2b7bf1f964a520bdb624e3", "numCheckins": 9732, "_id": "4b2b7bf1f964a520bdb624e3", "name": "Piazza Santa Croce"}
{"numUsers": 1816, "state": "Toscana", "gadmCity": "Florence", "foursquareURL": "https://foursquare.com/v/grom/4b2b84d0f964a52015b724e3", "coordinates": [11.255793571472168, 43.77223461043636], "city": "Firenze", "country": "Italia", "numTips": 123, "numCheckins": 2275, "_id": "4b2b84d0f964a52015b724e3", "name": "Grom", "categories": [{"primary": true, "id": "4bf58dd8d48988d1c9941735", "name": "Ice Cream Shop"}], "postalCode": "50122"}
{"numUsers": 1882, "state": "Toscana", "gadmCity": "Florence", "foursquareURL": "https://foursquare.com/v/colle-bereto/4b2bc805f964a520dcba24e3", "coordinates": [11.252312064170837, 43.77121390222121], "city": "Firenze", "country": "Italia", "numTips": 60, "numCheckins": 2977, "_id": "4b2bc805f964a520dcba24e3", "name": "Colle Bereto", "categories": [{"primary": true, "id": "4bf58dd8d48988d11e941735", "name": "Cocktail Bar"}], "postalCode": "50123"}
{"numUsers": 11434, "state": "Toscana", "gadmCity": "Florence", "foursquareURL": "https://foursquare.com/v/piazzale-michelangelo/4b3276d5f964a520620c25e3", "coordinates": [11.264988, 43.762765], "city": "Firenze", "country": "Italia", "numTips": 248, "numCheckins": 13389, "_id": "4b3276d5f964a520620c25e3", "name": "Piazzale Michelangelo", "categories": [{"primary": true, "id": "4bf58dd8d48988d164941735", "name": "Plaza"}], "postalCode": "50125"}
{"numUsers": 25667, "state": "Toscana", "gadmCity": "Florence", "foursquareURL": "https://foursquare.com/v/piazza-del-duomo/4b36068ef964a520c12f25e3", "coordinates": [11.255418062210083, 43.773115853041915], "city": "Firenze", "country": "Italia", "numTips": 207, "numCheckins": 34267, "_id": "4b36068ef964a520c12f25e3", "name": "Piazza del Duomo", "categories": [{"primary": true, "id": "4bf58dd8d48988d164941735", "name": "Plaza"}], "postalCode": "50122"}
{"numUsers": 2903, "state": "Toscana", "gadmCity": "Florence", "foursquareURL": "https://foursquare.com/v/campanile-di-giotto/4b49cd73f964a520d87326e3", "coordinates": [11.255686283111572, 43.772813714182874], "city": "Firenze", "country": "Italia", "numTips": 78, "numCheckins": 3211, "_id": "4b49cd73f964a520d87326e3", "name": "Campanile di Giotto", "categories": [{"primary": true, "id": "4deefb944765f83613cdba6e", "name": "Historic Site"}], "postalCode": "50122"}
{"numUsers": 629, "state": "Toscana", "gadmCity": "Florence", "foursquareURL": "https://foursquare.com/v/red-garter--house-of-sizzle/4b4a0fb1f964a520597926e3", "coordinates": [11.259881258010864, 43.76833568239687], "city": "Firenze", "country": "Italia", "numTips": 13, "numCheckins": 826, "_id": "4b4a0fb1f964a520597926e3", "name": "Red Garter - House of Sizzle", "categories": [{"primary": true, "id": "4bf58dd8d48988d116941735", "name": "Bar"}], "postalCode": "50122"}
{"numUsers": 19330, "state": "Toscana", "gadmCity": "Florence", "foursquareURL": "https://foursquare.com/v/ponte-vecchio/4b6ed35df964a52038cc2ce3", "coordinates": [11.253165, 43.767979], "city": "Firenze", "country": "Italia", "numTips": 204, "numCheckins": 23800, "_id": "4b6ed35df964a52038cc2ce3", "name": "Ponte Vecchio", "categories": [{"primary": true, "id": "4bf58dd8d48988d1df941735", "name": "Bridge"}], "postalCode": "50125"}
{"numUsers": 946, "state": "Toscana", "gadmCity": "Florence", "foursquareURL": "https://foursquare.com/v/gelateria-la-carraia/4b6ee947f964a52094d02ce3", "coordinates": [11.246868, 43.76976728439331], "city": "Firenze", "country": "Italia", "numTips": 82, "numCheckins": 1197, "_id": "4b6ee947f964a52094d02ce3", "name": "Gelateria La Carraia", "categories": [{"primary": true, "id": "4bf58dd8d48988d1c9941735", "name": "Ice Cream Shop"}], "postalCode": "50124"}
{"numUsers": 8954, "state": "Toscana", "gadmCity": "Florence", "foursquareURL": "https://foursquare.com/v/aeroporto-di-firenze-amerigo-vespucci-flr/4b76e9f3f964a520ef692ee3", "coordinates": [11.201012134552002, 43.80207535936694], "city": "Firenze", "country": "Italia", "numTips": 125, "numCheckins": 17337, "_id": "4b76e9f3f964a520ef692ee3", "name": "Aeroporto di Firenze \"Amerigo Vespucci\" (FLR)", "categories": [{"primary": true, "id": "4bf58dd8d48988d1ed931735", "name": "Airport"}], "postalCode": "50127"}
{"numUsers": 825, "state": "Toscana", "gadmCity": "Florence", "foursquareURL": "https://foursquare.com/v/the-lions-fountain/4b7713adf964a520e27a2ee3", "coordinates": [11.261448705663682, 43.77141080739213], "city": "Firenze", "country": "Italia", "numTips": 18, "numCheckins": 1952, "_id": "4b7713adf964a520e27a2ee3", "name": "The Lion's Fountain", "categories": [{"primary": true, "id": "52e81612bcbc57f1066b7a06", "name": "Irish Pub"}], "postalCode": "50123"}
{"numUsers": 447, "state": "Toscana", "gadmCity": "Florence", "foursquareURL": "https://foursquare.com/v/i-ghibellini/4b784ab8f964a520d0c22ee3", "coordinates": [11.261367201805115, 43.77142308103555], "city": "Firenze", "country": "Italia", "numTips": 13, "numCheckins": 502, "_id": "4b784ab8f964a520d0c22ee3", "name": "I Ghibellini", "categories": [{"primary": true, "id": "4bf58dd8d48988d1ca941735", "name": "Pizza Place"}], "postalCode": "50123"}
{"numUsers": 233, "state": "Toscana", "gadmCity": "Florence", "categories": [{"primary": true, "id": "4bf58dd8d48988d110941735", "name": "Italian Restaurant"}], "coordinates": [11.245558, 43.774009], "city": "Firenze", "country": "Italia", "numTips": 17, "foursquareURL": "https://foursquare.com/v/trattoria-il-contadino/4b7ef7a6f964a520060d30e3", "numCheckins": 282, "_id": "4b7ef7a6f964a520060d30e3", "name": "Trattoria Il Contadino"}
{"numUsers": 1571, "state": "Toscana", "gadmCity": "Florence", "foursquareURL": "https://foursquare.com/v/grand-hotel-mediterraneo/4b801301f964a520c34f30e3", "coordinates": [11.272509236178742, 43.76626841407078], "city": "Firenze", "country": "Italia", "numTips": 47, "numCheckins": 2816, "_id": "4b801301f964a520c34f30e3", "name": "Grand Hotel Mediterraneo", "categories": [{"primary": true, "id": "4bf58dd8d48988d1fa931735", "name": "Hotel"}], "postalCode": "50121"}
{"numUsers": 327, "state": "Toscana", "gadmCity": "Florence", "categories": [{"primary": true, "id": "4bf58dd8d48988d110941735", "name": "Italian Restaurant"}], "coordinates": [11.261207, 43.768884], "city": "Firenze", "country": "Italia", "numTips": 13, "foursquareURL": "https://foursquare.com/v/boccadama/4b815ce5f964a52097a130e3", "numCheckins": 347, "_id": "4b815ce5f964a52097a130e3", "name": "Boccadama"}
{"numUsers": 15108, "state": "Toscana", "gadmCity": "Florence", "foursquareURL": "https://foursquare.com/v/piazza-della-signoria/4b81729af964a520a7a630e3", "coordinates": [11.255691647529602, 43.76975350381904], "city": "Firenze", "country": "Italia", "numTips": 149, "numCheckins": 19909, "_id": "4b81729af964a520a7a630e3", "name": "Piazza della Signoria", "categories": [{"primary": true, "id": "4bf58dd8d48988d164941735", "name": "Plaza"}], "postalCode": "50100"}
{"numUsers": 1584, "state": "Toscana", "gadmCity": "Florence", "foursquareURL": "https://foursquare.com/v/rivoire/4b817703f964a520e2a730e3", "coordinates": [11.255542511348581, 43.76961689566701], "city": "Firenze", "country": "Italia", "numTips": 50, "numCheckins": 1817, "_id": "4b817703f964a520e2a730e3", "name": "Rivoire", "categories": [{"primary": true, "id": "4bf58dd8d48988d16d941735", "name": "Caf\u00e9"}], "postalCode": "50122"}
{"numUsers": 644, "state": "Toscana", "gadmCity": "Florence", "foursquareURL": "https://foursquare.com/v/rocco-forte-hotel-savoy/4b96e8ccf964a52020ed34e3", "coordinates": [11.254559755325317, 43.77169036401139], "city": "Firenze", "country": "Italia", "numTips": 16, "numCheckins": 1071, "_id": "4b96e8ccf964a52020ed34e3", "name": "Rocco Forte Hotel Savoy", "categories": [{"primary": true, "id": "4bf58dd8d48988d1fa931735", "name": "Hotel"}], "postalCode": "50123"}
{"numUsers": 797, "state": "Toscana", "gadmCity": "Florence", "foursquareURL": "https://foursquare.com/v/gelateria-dei-neri/4b97fce0f964a5204c2435e3", "coordinates": [11.259101684703959, 43.76783871276111], "city": "Firenze", "country": "Italia", "numTips": 73, "numCheckins": 1001, "_id": "4b97fce0f964a5204c2435e3", "name": "Gelateria dei Neri", "categories": [{"primary": true, "id": "4bf58dd8d48988d1c9941735", "name": "Ice Cream Shop"}], "postalCode": "50122"}
{"numUsers": 2894, "state": "Toscana", "gadmCity": "Florence", "categories": [{"primary": true, "id": "4bf58dd8d48988d129951735", "name": "Train Station"}], "coordinates": [11.276351370663166, 43.77747422564382], "city": "Firenze", "country": "Italia", "numTips": 22, "foursquareURL": "https://foursquare.com/v/stazione-firenze-campo-di-marte/4b9a3fc6f964a52046a735e3", "numCheckins": 6113, "_id": "4b9a3fc6f964a52046a735e3", "name": "Stazione Firenze Campo di Marte"}
{"numUsers": 9465, "state": "Toscana", "gadmCity": "Florence", "foursquareURL": "https://foursquare.com/v/piazza-della-repubblica/4b9d0430f964a520cd8836e3", "coordinates": [11.253969669342041, 43.771469565117144], "city": "Firenze", "country": "Italia", "numTips": 70, "numCheckins": 13660, "_id": "4b9d0430f964a520cd8836e3", "name": "Piazza della Repubblica", "categories": [{"primary": true, "id": "4bf58dd8d48988d164941735", "name": "Plaza"}], "postalCode": "50123"}
{"numUsers": 1293, "state": "Toscana", "gadmCity": "Florence", "foursquareURL": "https://foursquare.com/v/gusta-pizza/4b9d3668f964a520f99936e3", "coordinates": [11.248806447801924, 43.7667126445504], "city": "Firenze", "country": "Italia", "numTips": 100, "numCheckins": 1601, "_id": "4b9d3668f964a520f99936e3", "name": "Gusta Pizza", "categories": [{"primary": true, "id": "4bf58dd8d48988d1ca941735", "name": "Pizza Place"}], "postalCode": "50125"}
{"numUsers": 860, "state": "Toscana", "gadmCity": "Florence", "foursquareURL": "https://foursquare.com/v/grand-hotel-baglioni/4ba22354f964a5206fde37e3", "coordinates": [11.250915223680508, 43.774597141344394], "city": "Firenze", "country": "Italia", "numTips": 17, "numCheckins": 1334, "_id": "4ba22354f964a5206fde37e3", "name": "Grand Hotel Baglioni", "categories": [{"primary": true, "id": "4bf58dd8d48988d1fa931735", "name": "Hotel"}], "postalCode": "50123"}
{"numUsers": 893, "state": "Toscana", "gadmCity": "Florence", "foursquareURL": "https://foursquare.com/v/le-giubbe-rosse/4baba192f964a520e9ba3ae3", "coordinates": [11.253867, 43.771022], "city": "Firenze", "country": "Italia", "numTips": 47, "numCheckins": 1061, "_id": "4baba192f964a520e9ba3ae3", "name": "Le Giubbe Rosse", "categories": [{"primary": true, "id": "4bf58dd8d48988d16d941735", "name": "Caf\u00e9"}], "postalCode": "50121"}
{"numUsers": 2158, "state": "Toscana", "gadmCity": "Florence", "foursquareURL": "https://foursquare.com/v/stadio-comunale-artemio-franchi/4bb494c2695876b0273efc3d", "coordinates": [11.282594203948975, 43.780699813019915], "city": "Firenze", "country": "Italia", "numTips": 40, "numCheckins": 5367, "_id": "4bb494c2695876b0273efc3d", "name": "Stadio Comunale Artemio Franchi", "categories": [{"primary": true, "id": "4bf58dd8d48988d188941735", "name": "Soccer Stadium"}], "postalCode": "50137"}
{"numUsers": 882, "state": "Toscana", "gadmCity": "Florence", "categories": [{"primary": true, "id": "4bf58dd8d48988d110941735", "name": "Italian Restaurant"}], "coordinates": [11.253876441478331, 43.77132249586419], "city": "Firenze", "country": "Italia", "numTips": 29, "foursquareURL": "https://foursquare.com/v/donnini/4bb776532f70c9b62bb48630", "numCheckins": 1073, "_id": "4bb776532f70c9b62bb48630", "name": "Donnini"}
{"numUsers": 376, "state": "Toscana", "gadmCity": "Florence", "categories": [{"primary": true, "id": "4bf58dd8d48988d18f941735", "name": "Art Museum"}], "coordinates": [11.26795389, 43.76933875], "city": "Firenze", "country": "Italia", "numTips": 11, "foursquareURL": "https://foursquare.com/v/le-murate/4bbc2b0d3de8c9b643b89aad", "numCheckins": 702, "_id": "4bbc2b0d3de8c9b643b89aad", "name": "Le Murate"}
{"numUsers": 814, "state": "Toscana", "gadmCity": "Florence", "foursquareURL": "https://foursquare.com/v/biblioteca-delle-oblate/4bbc2b733de8c9b68cb89aad", "coordinates": [11.259655222374535, 43.772689487165096], "city": "Firenze", "country": "Italia", "numTips": 29, "numCheckins": 1761, "_id": "4bbc2b733de8c9b68cb89aad", "name": "Biblioteca delle Oblate", "categories": [{"primary": true, "id": "4bf58dd8d48988d12f941735", "name": "Library"}], "postalCode": "50122"}
{"numUsers": 317, "state": "Toscana", "gadmCity": "Florence", "foursquareURL": "https://foursquare.com/v/hotel-albani-firenze/4bbf739598f4952153b1d263", "coordinates": [11.2501781, 43.777237], "city": "Firenze", "country": "Italia", "numTips": 12, "numCheckins": 527, "_id": "4bbf739598f4952153b1d263", "name": "Hotel Albani Firenze", "categories": [{"primary": true, "id": "4bf58dd8d48988d1fa931735", "name": "Hotel"}], "postalCode": "50123"}
{"numUsers": 3040, "state": "Toscana", "gadmCity": "Florence", "foursquareURL": "https://foursquare.com/v/stazione-firenze-rifredi/4bc232144cdfc9b687be9521", "coordinates": [11.23652458190918, 43.80018594521578], "city": "Firenze", "country": "Italia", "numTips": 19, "numCheckins": 7690, "_id": "4bc232144cdfc9b687be9521", "name": "Stazione Firenze Rifredi", "categories": [{"primary": true, "id": "4bf58dd8d48988d129951735", "name": "Train Station"}], "postalCode": "50141"}
{"numUsers": 151, "state": "Toscana", "gadmCity": "Florence", "categories": [{"primary": true, "id": "4bf58dd8d48988d1fa931735", "name": "Hotel"}], "coordinates": [11.254584932882077, 43.76818873465779], "city": "Firenze", "country": "Italia", "numTips": 6, "foursquareURL": "https://foursquare.com/v/hotel-degli-orafi/4bc5fe6bf360ef3ba9f1da2d", "numCheckins": 283, "_id": "4bc5fe6bf360ef3ba9f1da2d", "name": "Hotel Degli Orafi"}
{"numUsers": 6362, "state": "Toscana", "gadmCity": "Florence", "foursquareURL": "https://foursquare.com/v/caff%C3%A8-gilli/4bc73fe82f94d13a1c85117f", "coordinates": [11.254281, 43.771862], "city": "Firenze", "country": "Italia", "numTips": 247, "numCheckins": 7670, "_id": "4bc73fe82f94d13a1c85117f", "name": "Caff\u00e8 Gilli", "categories": [{"primary": true, "id": "4bf58dd8d48988d16d941735", "name": "Caf\u00e9"}], "postalCode": "50123"}
{"numUsers": 46, "state": "Toscana", "gadmCity": "Florence", "foursquareURL": "https://foursquare.com/v/salumeria-verdi/4bc858df0050b7134626ba3b", "coordinates": [11.26171440965179, 43.770477656269165], "city": "Firenze", "country": "Italia", "numTips": 5, "numCheckins": 66, "_id": "4bc858df0050b7134626ba3b", "name": "Salumeria Verdi", "categories": [{"primary": true, "id": "4bf58dd8d48988d1f5941735", "name": "Gourmet Shop"}], "postalCode": "50122"}
{"numUsers": 1188, "state": "Toscana", "gadmCity": "Florence", "foursquareURL": "https://foursquare.com/v/the-westin-excelsior/4bc88485dc55eee14485e8ac", "coordinates": [11.245790035466865, 43.77196333787919], "city": "Firenze", "country": "Italia", "numTips": 29, "numCheckins": 1990, "_id": "4bc88485dc55eee14485e8ac", "name": "The Westin Excelsior", "categories": [{"primary": true, "id": "4bf58dd8d48988d1fa931735", "name": "Hotel"}], "postalCode": "50123"}
{"numUsers": 431, "state": "Toscana", "gadmCity": "Florence", "foursquareURL": "https://foursquare.com/v/hotel-lungarno/4bc88496dc55eee14e85e8ac", "coordinates": [11.251667973455321, 43.768253649487434], "city": "Firenze", "country": "Italia", "numTips": 8, "numCheckins": 734, "_id": "4bc88496dc55eee14e85e8ac", "name": "Hotel Lungarno", "categories": [{"primary": true, "id": "4bf58dd8d48988d1fa931735", "name": "Hotel"}], "postalCode": "50125"}
{"numUsers": 238, "state": "Toscana", "gadmCity": "Florence", "foursquareURL": "https://foursquare.com/v/montebello-splendid-hotel-florence/4bc88499dc55eee14f85e8ac", "coordinates": [11.24136244079306, 43.775150222623644], "city": "Firenze", "country": "Italia", "numTips": 9, "numCheckins": 513, "_id": "4bc88499dc55eee14f85e8ac", "name": "Montebello Splendid Hotel Florence", "categories": [{"primary": true, "id": "4bf58dd8d48988d1fa931735", "name": "Hotel"}], "postalCode": "50123"}
{"numUsers": 601, "state": "Toscana", "gadmCity": "Florence", "foursquareURL": "https://foursquare.com/v/hotel-raffaello/4bc8849ddc55eee15385e8ac", "coordinates": [11.241707, 43.797527], "city": "Firenze", "country": "Italia", "numTips": 14, "numCheckins": 779, "_id": "4bc8849ddc55eee15385e8ac", "name": "Hotel Raffaello", "categories": [{"primary": true, "id": "4bf58dd8d48988d1fa931735", "name": "Hotel"}], "postalCode": "50134"}
{"numUsers": 141, "state": "Toscana", "gadmCity": "Florence", "foursquareURL": "https://foursquare.com/v/hotel-roma/4bc8849edc55eee15485e8ac", "coordinates": [11.249374, 43.772989], "city": "Firenze", "country": "Italia", "numTips": 4, "numCheckins": 234, "_id": "4bc8849edc55eee15485e8ac", "name": "Hotel Roma", "categories": [{"primary": true, "id": "4bf58dd8d48988d1fa931735", "name": "Hotel"}], "postalCode": "50123"}
{"numUsers": 643, "state": "Toscana", "gadmCity": "Florence", "foursquareURL": "https://foursquare.com/v/hotel-ambasciatori-firenze/4bc884a6dc55eee15b85e8ac", "coordinates": [11.246880361058782, 43.77593175127442], "city": "Firenze", "country": "Italia", "numTips": 27, "numCheckins": 1040, "_id": "4bc884a6dc55eee15b85e8ac", "name": "Hotel Ambasciatori Firenze", "categories": [{"primary": true, "id": "4bf58dd8d48988d1fa931735", "name": "Hotel"}], "postalCode": "50123"}
{"numUsers": 219, "state": "Toscana", "gadmCity": "Florence", "foursquareURL": "https://foursquare.com/v/hotel-bretagna/4bc884dfdc55eee18585e8ac", "coordinates": [11.249918946013906, 43.770009618451866], "city": "Firenze", "country": "Italia", "numTips": 6, "numCheckins": 377, "_id": "4bc884dfdc55eee18585e8ac", "name": "Hotel Bretagna", "categories": [{"primary": true, "id": "4bf58dd8d48988d1fa931735", "name": "Hotel"}], "postalCode": "50123"}
{"numUsers": 61, "state": "Toscana", "gadmCity": "Florence", "categories": [{"primary": true, "id": "4bf58dd8d48988d1fa931735", "name": "Hotel"}], "coordinates": [11.253477917290967, 43.78366876368271], "city": "Firenze", "country": "Italia", "numTips": 4, "foursquareURL": "https://foursquare.com/v/la-fortezza-hotel-florence/4bc88597dc55eee11786e8ac", "numCheckins": 107, "_id": "4bc88597dc55eee11786e8ac", "name": "La Fortezza Hotel Florence"}
{"numUsers": 210, "state": "Toscana", "gadmCity": "Florence", "categories": [{"primary": true, "id": "4bf58dd8d48988d1fa931735", "name": "Hotel"}], "coordinates": [11.260632276535034, 43.78063784380263], "city": "Firenze", "country": "Italia", "numTips": 3, "foursquareURL": "https://foursquare.com/v/athenaeum-personal-hotel-florence/4bc885abdc55eee12786e8ac", "numCheckins": 366, "_id": "4bc885abdc55eee12786e8ac", "name": "Athenaeum Personal Hotel Florence"}
{"numUsers": 690, "state": "Fl", "gadmCity": "Florence", "categories": [{"primary": true, "id": "4bf58dd8d48988d110941735", "name": "Italian Restaurant"}], "coordinates": [11.252686408729987, 43.77027863252875], "city": "Firenze", "country": "Italia", "numTips": 72, "foursquareURL": "https://foursquare.com/v/la-bussola/4bc8b008af07a593a76c812d", "numCheckins": 839, "_id": "4bc8b008af07a593a76c812d", "name": "La Bussola"}
{"numUsers": 1339, "state": "Toscana", "gadmCity": "Florence", "foursquareURL": "https://foursquare.com/v/il-latini/4bc8b8e892b376b04c0b523a", "coordinates": [11.249315649411965, 43.771625307793876], "city": "Firenze", "country": "Italia", "numTips": 98, "numCheckins": 1459, "_id": "4bc8b8e892b376b04c0b523a", "name": "IL Latini", "categories": [{"primary": true, "id": "4bf58dd8d48988d110941735", "name": "Italian Restaurant"}], "postalCode": "50123"}
{"numUsers": 5815, "state": "Toscana", "gadmCity": "Florence", "foursquareURL": "https://foursquare.com/v/palazzo-pitti/4bc8c9d7af07a593d4aa812d", "coordinates": [11.250021, 43.765089], "city": "Firenze", "country": "Italia", "numTips": 76, "numCheckins": 6473, "_id": "4bc8c9d7af07a593d4aa812d", "name": "Palazzo Pitti", "categories": [{"primary": true, "id": "4bf58dd8d48988d18f941735", "name": "Art Museum"}], "postalCode": "50125"}
{"numUsers": 414, "state": "Toscana", "gadmCity": "Florence", "foursquareURL": "https://foursquare.com/v/golden-tulip-mirage-hotel/4bc8f72c762beee159c03d38", "coordinates": [11.205567091242724, 43.794745934227], "city": "Firenze", "country": "Italia", "numTips": 7, "numCheckins": 512, "_id": "4bc8f72c762beee159c03d38", "name": "Golden Tulip Mirage Hotel", "categories": [{"primary": true, "id": "4bf58dd8d48988d1fa931735", "name": "Hotel"}], "postalCode": "50127"}
{"numUsers": 645, "state": "Toscana", "gadmCity": "Florence", "foursquareURL": "https://foursquare.com/v/nilhotel--firenze/4bc8f74d762beee182c03d38", "coordinates": [11.227068197937777, 43.798985953501784], "city": "Firenze", "country": "Italia", "numTips": 13, "numCheckins": 1001, "_id": "4bc8f74d762beee182c03d38", "name": "Nilhotel - Firenze", "categories": [{"primary": true, "id": "4bf58dd8d48988d1fa931735", "name": "Hotel"}], "postalCode": "50127"}
{"numUsers": 487, "state": "Toscana", "gadmCity": "Florence", "categories": [{"primary": true, "id": "4bf58dd8d48988d181941735", "name": "Museum"}], "coordinates": [11.25885812910844, 43.7781021114825], "city": "Firenze", "country": "Italia", "numTips": 15, "foursquareURL": "https://foursquare.com/v/museo-di-san-marco/4bc95f61cc8cd13acb9fbbcf", "numCheckins": 577, "_id": "4bc95f61cc8cd13acb9fbbcf", "name": "Museo di San Marco"}
{"numUsers": 3841, "state": "Toscana", "gadmCity": "Florence", "foursquareURL": "https://foursquare.com/v/giardino-di-boboli/4bc97abcfb84c9b6f62e1b3e", "coordinates": [11.249496, 43.762649], "city": "Firenze", "country": "Italia", "numTips": 91, "numCheckins": 4186, "_id": "4bc97abcfb84c9b6f62e1b3e", "name": "Giardino di Boboli", "categories": [{"primary": true, "id": "4bf58dd8d48988d15a941735", "name": "Garden"}], "postalCode": "50125"}
{"numUsers": 936, "state": "Toscana", "gadmCity": "Florence", "foursquareURL": "https://foursquare.com/v/uci-cinemas/4bca3463511f95210a50afc7", "coordinates": [11.189188957214355, 43.772209431885415], "city": "Firenze", "country": "Italia", "numTips": 31, "numCheckins": 2774, "_id": "4bca3463511f95210a50afc7", "name": "UCI Cinemas", "categories": [{"primary": true, "id": "4bf58dd8d48988d180941735", "name": "Multiplex"}], "postalCode": "50142"}
{"numUsers": 3101, "state": "Toscana", "gadmCity": "Florence", "categories": [{"primary": true, "id": "4bf58dd8d48988d164941735", "name": "Plaza"}], "coordinates": [11.247671842575073, 43.766793860301], "city": "Firenze", "country": "Italia", "numTips": 55, "foursquareURL": "https://foursquare.com/v/piazza-santo-spirito/4bca3ec8511f9521766bafc7", "numCheckins": 5850, "_id": "4bca3ec8511f9521766bafc7", "name": "Piazza Santo Spirito"}
{"numUsers": 1248, "state": "Toscana", "gadmCity": "Florence", "foursquareURL": "https://foursquare.com/v/obic%C3%A0/4bcc3bed3740b7138ca16365", "coordinates": [11.25159048424368, 43.771840809862184], "city": "Firenze", "country": "Italia", "numTips": 80, "numCheckins": 1595, "_id": "4bcc3bed3740b7138ca16365", "name": "Obic\u00e0", "categories": [{"primary": true, "id": "4bf58dd8d48988d110941735", "name": "Italian Restaurant"}], "postalCode": "50123"}
{"numUsers": 452, "state": "Toscana", "gadmCity": "Florence", "foursquareURL": "https://foursquare.com/v/osteria-del-cinghiale-bianco/4bcc9ed0cc8cd13aed41c1cf", "coordinates": [11.25058313001101, 43.768003530300184], "city": "Firenze", "country": "Italia", "numTips": 37, "numCheckins": 491, "_id": "4bcc9ed0cc8cd13aed41c1cf", "name": "Osteria del Cinghiale Bianco", "categories": [{"primary": true, "id": "4bf58dd8d48988d110941735", "name": "Italian Restaurant"}], "postalCode": "50125"}
{"numUsers": 2011, "state": "Toscana", "gadmCity": "Florence", "foursquareURL": "https://foursquare.com/v/plus-florence-hostel/4bccb6c5511f9521e381b3c7", "coordinates": [11.255509300379753, 43.781651894897735], "city": "Firenze", "country": "Italia", "numTips": 61, "numCheckins": 2990, "_id": "4bccb6c5511f9521e381b3c7", "name": "PLUS Florence Hostel", "categories": [{"primary": true, "id": "4bf58dd8d48988d1ee931735", "name": "Hostel"}], "postalCode": "50129"}
{"numUsers": 707, "state": "Toscana", "gadmCity": "Florence", "categories": [{"primary": true, "id": "4bf58dd8d48988d110941735", "name": "Italian Restaurant"}], "coordinates": [11.254688501358032, 43.76953269777427], "city": "Firenze", "country": "Italia", "numTips": 29, "foursquareURL": "https://foursquare.com/v/la-borsa/4bccd543fb84c9b60d1f213e", "numCheckins": 750, "_id": "4bccd543fb84c9b60d1f213e", "name": "La Borsa"}
{"numUsers": 8353, "state": "Toscana", "gadmCity": "Florence", "foursquareURL": "https://foursquare.com/v/galleria-dellaccademia/4bcd9011fb84c9b64524223e", "coordinates": [11.259152, 43.776718], "city": "Firenze", "country": "Italia", "numTips": 180, "numCheckins": 8826, "_id": "4bcd9011fb84c9b64524223e", "name": "Galleria dell'Accademia", "categories": [{"primary": true, "id": "4bf58dd8d48988d18f941735", "name": "Art Museum"}], "postalCode": "50122"}
{"numUsers": 76, "state": "Toscana", "gadmCity": "Florence", "categories": [{"primary": true, "id": "4bf58dd8d48988d12f951735", "name": "Resort"}], "coordinates": [11.255232542739193, 43.76960811886945], "city": "Firenze", "country": "Italia", "numTips": 3, "foursquareURL": "https://foursquare.com/v/relais-piazza-signoria-apartment-florence/4bcf60c90ffdce725369b2c0", "numCheckins": 162, "_id": "4bcf60c90ffdce725369b2c0", "name": "Relais Piazza Signoria Apartment Florence"}
{"numUsers": 3591, "state": "Toscana", "gadmCity": "Florence", "foursquareURL": "https://foursquare.com/v/basilica-di-santa-croce/4bd00520caff9521042ccef0", "coordinates": [11.262799501419067, 43.76844415079672], "city": "Firenze", "country": "Italia", "numTips": 52, "numCheckins": 3958, "_id": "4bd00520caff9521042ccef0", "name": "Basilica di Santa Croce", "categories": [{"primary": true, "id": "4bf58dd8d48988d132941735", "name": "Church"}], "postalCode": "50122"}
{"numUsers": 14657, "state": "Toscana", "gadmCity": "Florence", "foursquareURL": "https://foursquare.com/v/cattedrale-di-santa-maria-del-fiore/4bd00cdb046076b00a576f71", "coordinates": [11.255643367767334, 43.77313909442939], "city": "Firenze", "country": "Italia", "numTips": 113, "numCheckins": 17373, "_id": "4bd00cdb046076b00a576f71", "name": "Cattedrale di Santa Maria del Fiore", "categories": [{"primary": true, "id": "4bf58dd8d48988d132941735", "name": "Church"}], "postalCode": "50122"}
{"numUsers": 1351, "state": "Toscana", "gadmCity": "Florence", "foursquareURL": "https://foursquare.com/v/museo-galileo--istituto-e-museo-di-storia-della-scienza/4bd01a269854d13a1620f74d", "coordinates": [11.255887, 43.767704], "city": "Firenze", "country": "Italia", "numTips": 24, "numCheckins": 1480, "_id": "4bd01a269854d13a1620f74d", "name": "Museo Galileo - Istituto e Museo di Storia della Scienza", "categories": [{"primary": true, "id": "4bf58dd8d48988d191941735", "name": "Science Museum"}], "postalCode": "50122"}
{"numUsers": 9887, "state": "Toscana", "gadmCity": "Florence", "foursquareURL": "https://foursquare.com/v/palazzo-vecchio/4bd01b8077b29c74a0298a82", "coordinates": [11.256153, 43.769227], "city": "Firenze", "country": "Italia", "numTips": 105, "numCheckins": 12894, "_id": "4bd01b8077b29c74a0298a82", "name": "Palazzo Vecchio", "categories": [{"primary": true, "id": "4bf58dd8d48988d129941735", "name": "City Hall"}], "postalCode": "50122"}
{"numUsers": 2900, "state": "Toscana", "gadmCity": "Florence", "foursquareURL": "https://foursquare.com/v/fortezza-da-basso/4bd02784caff95211b49cef0", "coordinates": [11.248819828033447, 43.78183073995303], "city": "Firenze", "country": "Italia", "numTips": 15, "numCheckins": 5474, "_id": "4bd02784caff95211b49cef0", "name": "Fortezza da Basso", "categories": [{"primary": true, "id": "4deefb944765f83613cdba6e", "name": "Historic Site"}], "postalCode": "50129"}
{"numUsers": 109, "state": "Toscana", "gadmCity": "Florence", "foursquareURL": "https://foursquare.com/v/gilda-restaurant/4bd186fdb221c9b606a0d5d0", "coordinates": [11.266779528099152, 43.77095738960751], "city": "Firenze", "country": "Italia", "numTips": 8, "numCheckins": 722, "_id": "4bd186fdb221c9b606a0d5d0", "name": "Gilda restaurant", "categories": [{"primary": true, "id": "4bf58dd8d48988d110941735", "name": "Italian Restaurant"}], "postalCode": "50122"}
{"numUsers": 42, "state": "Toscana", "gadmCity": "Florence", "categories": [{"primary": true, "id": "4bf58dd8d48988d1fa931735", "name": "Hotel"}], "coordinates": [11.173097477881344, 43.552865482788214], "city": "Firenze", "country": "Italia", "numTips": 1, "foursquareURL": "https://foursquare.com/v/borgo-di-cortefreda-hotel-florence/4bd1a7a75e0cce7235caa184", "numCheckins": 98, "_id": "4bd1a7a75e0cce7235caa184", "name": "Borgo Di Cortefreda Hotel Florence"}
{"numUsers": 865, "state": "Toscana", "gadmCity": "Florence", "foursquareURL": "https://foursquare.com/v/gelateria-santa-trinita/4bd30172a8b3a59341d4685f", "coordinates": [11.249990899065043, 43.76874108811037], "city": "Firenze", "country": "Italia", "numTips": 50, "numCheckins": 1011, "_id": "4bd30172a8b3a59341d4685f", "name": "Gelateria Santa Trinita", "categories": [{"primary": true, "id": "4bf58dd8d48988d1c9941735", "name": "Ice Cream Shop"}], "postalCode": "50125"}
{"numUsers": 778, "state": "Toscana", "gadmCity": "Florence", "foursquareURL": "https://foursquare.com/v/porta-romana/4bd329c69854d13ae707fd4d", "coordinates": [11.241882, 43.760681], "city": "Firenze", "country": "Italia", "numTips": 8, "numCheckins": 1852, "_id": "4bd329c69854d13ae707fd4d", "name": "Porta Romana", "categories": [{"primary": true, "id": "4bf58dd8d48988d164941735", "name": "Plaza"}], "postalCode": "50125"}
{"numUsers": 2151, "state": "Toscana", "gadmCity": "Florence", "foursquareURL": "https://foursquare.com/v/david-di-michelangelo/4bd432ff41b9ef3b1a9001e6", "coordinates": [11.258426372933055, 43.77634359590613], "city": "Firenze", "country": "Italia", "numTips": 28, "numCheckins": 2282, "_id": "4bd432ff41b9ef3b1a9001e6", "name": "David di Michelangelo", "categories": [{"primary": true, "id": "4bf58dd8d48988d12d941735", "name": "Monument / Landmark"}], "postalCode": "50122"}
{"numUsers": 596, "state": "Toscana", "gadmCity": "Florence", "categories": [{"primary": true, "id": "4bf58dd8d48988d1ee931735", "name": "Hostel"}], "coordinates": [11.278338930864354, 43.78052256853089], "city": "Firenze", "country": "Italia", "numTips": 24, "foursquareURL": "https://foursquare.com/v/hostel-7-santi-florence/4bd6e81d1728986e1a2cb735", "numCheckins": 867, "_id": "4bd6e81d1728986e1a2cb735", "name": "Hostel 7 Santi Florence"}
{"numUsers": 178, "state": "Toscana", "gadmCity": "Florence", "categories": [{"primary": true, "id": "4bf58dd8d48988d1fa931735", "name": "Hotel"}], "coordinates": [11.267930030823, 43.766891479492], "city": "Firenze", "country": "Italia", "numTips": 10, "foursquareURL": "https://foursquare.com/v/home-hotel-florence/4bd7cb07304fce728a0834ab", "numCheckins": 385, "_id": "4bd7cb07304fce728a0834ab", "name": "Home Hotel Florence"}
{"numUsers": 577, "state": "Toscana", "gadmCity": "Florence", "foursquareURL": "https://foursquare.com/v/sheraton-firenze-hotel--conference-center/4bd855952ecdce725ab8d0f2", "coordinates": [11.283786932121671, 43.74350888828823], "city": "Firenze", "country": "Italia", "numTips": 19, "numCheckins": 756, "_id": "4bd855952ecdce725ab8d0f2", "name": "Sheraton Firenze Hotel & Conference Center", "categories": [{"primary": true, "id": "4bf58dd8d48988d1fa931735", "name": "Hotel"}], "postalCode": "50126"}
{"numUsers": 925, "state": "Toscana", "gadmCity": "Florence", "foursquareURL": "https://foursquare.com/v/museo-casa-di-dante/4bd9e9c53904a5934a38449e", "coordinates": [11.25689310018083, 43.771051970055474], "city": "Firenze", "country": "Italia", "numTips": 24, "numCheckins": 1122, "_id": "4bd9e9c53904a5934a38449e", "name": "Museo Casa di Dante", "categories": [{"primary": true, "id": "4bf58dd8d48988d190941735", "name": "History Museum"}], "postalCode": "50122"}
{"numUsers": 651, "state": "Toscana", "gadmCity": "Florence", "foursquareURL": "https://foursquare.com/v/la-beppa-fioraia/4bdcaf3fccf52d7fd6e0786d", "coordinates": [11.260756, 43.762632608413696], "city": "Firenze", "country": "Italia", "numTips": 45, "numCheckins": 833, "_id": "4bdcaf3fccf52d7fd6e0786d", "name": "La Beppa Fioraia", "categories": [{"primary": true, "id": "4bf58dd8d48988d110941735", "name": "Italian Restaurant"}], "postalCode": "50125"}
{"numUsers": 298, "state": "Toscana", "gadmCity": "Florence", "foursquareURL": "https://foursquare.com/v/virgin-active-firenze-rovezzano/4bde91bf921d9521dff86832", "coordinates": [11.309909, 43.764306], "city": "Firenze", "country": "Italia", "numTips": 10, "numCheckins": 2240, "_id": "4bde91bf921d9521dff86832", "name": "Virgin Active Firenze Rovezzano", "categories": [{"primary": true, "id": "4bf58dd8d48988d175941735", "name": "Gym / Fitness Center"}], "postalCode": "50136"}
{"numUsers": 297, "state": "Toscana", "gadmCity": "Florence", "categories": [{"primary": true, "id": "4bf58dd8d48988d1fa931735", "name": "Hotel"}], "coordinates": [11.297163963317871, 43.78785682548286], "city": "Firenze", "country": "Italia", "numTips": 14, "foursquareURL": "https://foursquare.com/v/il-salviatino/4bdee3a2fe0e62b50c070606", "numCheckins": 575, "_id": "4bdee3a2fe0e62b50c070606", "name": "Il Salviatino"}
{"numUsers": 606, "state": "Toscana", "gadmCity": "Florence", "categories": [{"primary": true, "id": "4bf58dd8d48988d110941735", "name": "Italian Restaurant"}], "coordinates": [11.25107573602008, 43.776984263027764], "city": "Firenze", "country": "Italia", "numTips": 47, "foursquareURL": "https://foursquare.com/v/nerone-trattoria/4be075b22aed2d7f8b71c86f", "numCheckins": 716, "_id": "4be075b22aed2d7f8b71c86f", "name": "Nerone Trattoria"}
{"numUsers": 271, "state": "Toscana", "gadmCity": "Florence", "foursquareURL": "https://foursquare.com/v/biblioteca-di-scienze-sociali/4be17bc5ea6e20a102ff9267", "coordinates": [11.230709552764893, 43.79227143831331], "city": "Firenze", "country": "Italia", "numTips": 13, "numCheckins": 1758, "_id": "4be17bc5ea6e20a102ff9267", "name": "Biblioteca di Scienze Sociali", "categories": [{"primary": true, "id": "4bf58dd8d48988d1a7941735", "name": "College Library"}], "postalCode": "50121"}
{"numUsers": 5650, "state": "Toscana", "gadmCity": "Florence", "categories": [{"primary": true, "id": "4bf58dd8d48988d110941735", "name": "Italian Restaurant"}], "coordinates": [11.25451147556305, 43.776493506621755], "city": "Firenze", "country": "Italia", "numTips": 551, "foursquareURL": "https://foursquare.com/v/trattoria-z%C3%A0-z%C3%A0/4be1b81da145c928ae564e80", "numCheckins": 6510, "_id": "4be1b81da145c928ae564e80", "name": "Trattoria Z\u00e0 Z\u00e0"}
{"numUsers": 534, "state": "Toscana", "gadmCity": "Florence", "foursquareURL": "https://foursquare.com/v/tijuana/4be5ba84910020a1ca64d314", "coordinates": [11.260107, 43.77045294], "city": "Firenze", "country": "Italia", "numTips": 33, "numCheckins": 783, "_id": "4be5ba84910020a1ca64d314", "name": "Tijuana", "categories": [{"primary": true, "id": "4bf58dd8d48988d1c1941735", "name": "Mexican Restaurant"}], "postalCode": "50122"}
{"numUsers": 254, "state": "Toscana", "gadmCity": "Florence", "foursquareURL": "https://foursquare.com/v/kome/4be715082468c9289c100243", "coordinates": [11.259985, 43.768506], "city": "Firenze", "country": "Italia", "numTips": 22, "numCheckins": 847, "_id": "4be715082468c9289c100243", "name": "Kome", "categories": [{"primary": true, "id": "4bf58dd8d48988d111941735", "name": "Japanese Restaurant"}], "postalCode": "50122"}
{"numUsers": 41, "state": "Toscana", "gadmCity": "Florence", "foursquareURL": "https://foursquare.com/v/vivido-srl/4be91210ee96c928ffcbfebf", "coordinates": [11.190347671508789, 43.80302004403552], "city": "Firenze", "country": "Italia", "numTips": 2, "numCheckins": 3244, "_id": "4be91210ee96c928ffcbfebf", "name": "Vivido srl", "categories": [{"primary": true, "id": "4bf58dd8d48988d125941735", "name": "Tech Startup"}], "postalCode": "50145"}
{"numUsers": 529, "state": "Toscana", "gadmCity": "Florence", "foursquareURL": "https://foursquare.com/v/bar-ponte-vecchio/4beafa0a62c0c928b088e1d4", "coordinates": [11.252814, 43.767521], "city": "Firenze", "country": "Italia", "numTips": 20, "numCheckins": 561, "_id": "4beafa0a62c0c928b088e1d4", "name": "Bar Ponte Vecchio", "categories": [{"primary": true, "id": "4bf58dd8d48988d16d941735", "name": "Caf\u00e9"}], "postalCode": "50125"}
{"numUsers": 132, "state": "Toscana", "gadmCity": "Florence", "foursquareURL": "https://foursquare.com/v/la-loggia/4bed3968e3562d7fb4a8fef8", "coordinates": [11.26604327076736, 43.7714430507522], "city": "Firenze", "country": "Italia", "numTips": 2, "numCheckins": 712, "_id": "4bed3968e3562d7fb4a8fef8", "name": "La Loggia", "categories": [{"primary": true, "id": "4bf58dd8d48988d16d941735", "name": "Caf\u00e9"}], "postalCode": "50121"}
{"numUsers": 153, "state": "Toscana", "gadmCity": "Florence", "foursquareURL": "https://foursquare.com/v/museo-archeologico-nazionale-di-firenze/4bef22dad1b7d13a6862cdec", "coordinates": [11.262207, 43.776228], "city": "Firenze", "country": "Italia", "numTips": 8, "numCheckins": 165, "_id": "4bef22dad1b7d13a6862cdec", "name": "Museo archeologico nazionale di Firenze", "categories": [{"primary": true, "id": "4bf58dd8d48988d190941735", "name": "History Museum"}], "postalCode": "50121"}
{"numUsers": 604, "state": "Toscana", "gadmCity": "Florence", "foursquareURL": "https://foursquare.com/v/ostaria-dei-centopoveri/4bf28d961cd9d13abec3ed76", "coordinates": [11.247605406554259, 43.77311469323676], "city": "Firenze", "country": "Italia", "numTips": 49, "numCheckins": 783, "_id": "4bf28d961cd9d13abec3ed76", "name": "Ostaria Dei Centopoveri", "categories": [{"primary": true, "id": "4bf58dd8d48988d110941735", "name": "Italian Restaurant"}], "postalCode": "50123"}
{"numUsers": 297, "state": "Toscana", "gadmCity": "Florence", "foursquareURL": "https://foursquare.com/v/trattoria-sostanza-il-troia/4bf2fa0c706e20a1b2b3a798", "coordinates": [11.246974468231201, 43.772647149800164], "city": "Firenze", "country": "Italia", "numTips": 29, "numCheckins": 359, "_id": "4bf2fa0c706e20a1b2b3a798", "name": "Trattoria Sostanza (Il Troia)", "categories": [{"primary": true, "id": "4bf58dd8d48988d110941735", "name": "Italian Restaurant"}], "postalCode": "50123"}
{"numUsers": 930, "state": "Toscana", "gadmCity": "Florence", "foursquareURL": "https://foursquare.com/v/vivoli/4bf51f2894af2d7f6b4b3b72", "coordinates": [11.260122656822205, 43.76993557134802], "city": "Firenze", "country": "Italia", "numTips": 71, "numCheckins": 1234, "_id": "4bf51f2894af2d7f6b4b3b72", "name": "Vivoli", "categories": [{"primary": true, "id": "4bf58dd8d48988d1c9941735", "name": "Ice Cream Shop"}], "postalCode": "50122"}
{"numUsers": 36, "state": "Toscana", "gadmCity": "Florence", "foursquareURL": "https://foursquare.com/v/palazzo-vivarelli-colonna/4bf54c27d2fbef3bedeaa4c5", "coordinates": [11.26624345779419, 43.76937387186959], "city": "Firenze", "country": "Italia", "numTips": 3, "numCheckins": 207, "_id": "4bf54c27d2fbef3bedeaa4c5", "name": "Palazzo Vivarelli Colonna", "categories": [{"primary": true, "id": "4bf58dd8d48988d15a941735", "name": "Garden"}], "postalCode": "50122"}
{"numUsers": 276, "state": "Toscana", "gadmCity": "Florence", "foursquareURL": "https://foursquare.com/v/le-volpi-e-luva/4bf57553cad2c92813159d99", "coordinates": [11.25266, 43.76704], "city": "Firenze", "country": "Italia", "numTips": 13, "numCheckins": 402, "_id": "4bf57553cad2c92813159d99", "name": "Le volpi e l'uva", "categories": [{"primary": true, "id": "4bf58dd8d48988d123941735", "name": "Wine Bar"}], "postalCode": "50125"}
{"numUsers": 6120, "state": "Toscana", "gadmCity": "Florence", "categories": [{"primary": true, "id": "4bf58dd8d48988d164941735", "name": "Plaza"}], "coordinates": [11.249570846557615, 43.77358842614516], "city": "Firenze", "country": "Italia", "numTips": 44, "foursquareURL": "https://foursquare.com/v/piazza-santa-maria-novella/4bf64e8d5efe2d7f61ed6634", "numCheckins": 8308, "_id": "4bf64e8d5efe2d7f61ed6634", "name": "Piazza Santa Maria Novella"}
{"numUsers": 1476, "state": "Toscana", "gadmCity": "Florence", "foursquareURL": "https://foursquare.com/v/piazza-della-santissima-annunziata/4bf6a9a1004ed13abbd542a0", "coordinates": [11.260626912117003, 43.77646251984134], "city": "Firenze", "country": "Italia", "numTips": 21, "numCheckins": 2365, "_id": "4bf6a9a1004ed13abbd542a0", "name": "Piazza della Santissima Annunziata", "categories": [{"primary": true, "id": "4bf58dd8d48988d164941735", "name": "Plaza"}], "postalCode": "50121"}
{"numUsers": 50, "state": "Toscana", "gadmCity": "Florence", "categories": [{"primary": true, "id": "4bf58dd8d48988d1ca941735", "name": "Pizza Place"}], "coordinates": [11.240820074070689, 43.79655347818289], "city": "Firenze", "country": "Italia", "numTips": 4, "foursquareURL": "https://foursquare.com/v/i-4-mori/4bf6c293b182c9b60270745a", "numCheckins": 73, "_id": "4bf6c293b182c9b60270745a", "name": "I 4 Mori"}
{"numUsers": 570, "state": "Toscana", "gadmCity": "Florence", "categories": [{"primary": true, "id": "4bf58dd8d48988d110941735", "name": "Italian Restaurant"}], "coordinates": [11.249525972580502, 43.772226558489095], "city": "Firenze", "country": "Italia", "numTips": 46, "foursquareURL": "https://foursquare.com/v/buca-mario/4bf6df005ec320a1cded85d3", "numCheckins": 616, "_id": "4bf6df005ec320a1cded85d3", "name": "Buca Mario"}
{"numUsers": 289, "state": "Toscana", "gadmCity": "Florence", "foursquareURL": "https://foursquare.com/v/aji-tei/4bf7b8bd508c0f47fbe73d31", "coordinates": [11.256057282789264, 43.782976168694475], "city": "Firenze", "country": "Italia", "numTips": 22, "numCheckins": 575, "_id": "4bf7b8bd508c0f47fbe73d31", "name": "Aji Tei", "categories": [{"primary": true, "id": "4bf58dd8d48988d111941735", "name": "Japanese Restaurant"}], "postalCode": "50100"}
{"numUsers": 543, "state": "Toscana", "gadmCity": "Florence", "foursquareURL": "https://foursquare.com/v/fuori-porta/4bf7d8465317a593f7a2fe7e", "coordinates": [11.261755, 43.763552], "city": "Firenze", "country": "Italia", "numTips": 24, "numCheckins": 622, "_id": "4bf7d8465317a593f7a2fe7e", "name": "Fuori Porta", "categories": [{"primary": true, "id": "4bf58dd8d48988d123941735", "name": "Wine Bar"}], "postalCode": "50125"}
{"numUsers": 99, "state": "Toscana", "gadmCity": "Florence", "foursquareURL": "https://foursquare.com/v/olio--convivium/4bf8133f5317a593ae1bff7e", "coordinates": [11.249608995006884, 43.76827339015465], "city": "Firenze", "country": "Italia", "numTips": 3, "numCheckins": 109, "_id": "4bf8133f5317a593ae1bff7e", "name": "Olio & Convivium", "categories": [{"primary": true, "id": "4bf58dd8d48988d110941735", "name": "Italian Restaurant"}], "postalCode": "50124"}
{"numUsers": 538, "state": "Toscana", "gadmCity": "Florence", "categories": [{"primary": true, "id": "4bf58dd8d48988d110941735", "name": "Italian Restaurant"}], "coordinates": [11.248479895974059, 43.76671976828294], "city": "Firenze", "country": "Italia", "numTips": 47, "foursquareURL": "https://foursquare.com/v/trattoria-la-casalinga/4bf8257ab182c9b684f5765a", "numCheckins": 738, "_id": "4bf8257ab182c9b684f5765a", "name": "Trattoria La Casalinga"}
{"numUsers": 1355, "state": "Toscana", "gadmCity": "Florence", "categories": [{"primary": true, "id": "4bf58dd8d48988d181941735", "name": "Museum"}], "coordinates": [11.253368854522705, 43.77493640103604], "city": "Firenze", "country": "Italia", "numTips": 23, "foursquareURL": "https://foursquare.com/v/cappelle-medicee/4bf911c6b182c9b62261785a", "numCheckins": 1477, "_id": "4bf911c6b182c9b62261785a", "name": "Cappelle Medicee"}
{"numUsers": 737, "state": "Toscana", "gadmCity": "Florence", "foursquareURL": "https://foursquare.com/v/giannino-in-san-lorenzo/4bf9200a5efe2d7f50b96b34", "coordinates": [11.254845083341497, 43.77421149926106], "city": "Firenze", "country": "Italia", "numTips": 24, "numCheckins": 885, "_id": "4bf9200a5efe2d7f50b96b34", "name": "Giannino in San Lorenzo", "categories": [{"primary": true, "id": "4bf58dd8d48988d110941735", "name": "Italian Restaurant"}], "postalCode": "50123"}
{"numUsers": 552, "state": "Toscana", "gadmCity": "Florence", "categories": [{"primary": true, "id": "4bf58dd8d48988d164941735", "name": "Plaza"}], "coordinates": [11.240193843841553, 43.79617461382162], "city": "Firenze", "country": "Italia", "numTips": 8, "foursquareURL": "https://foursquare.com/v/piazza-dalmazia/4bfa9679508c0f47a0374031", "numCheckins": 2247, "_id": "4bfa9679508c0f47a0374031", "name": "Piazza Dalmazia"}
{"numUsers": 352, "state": "Toscana", "gadmCity": "Florence", "foursquareURL": "https://foursquare.com/v/strizzi-garden/4bfaa3d08f32ef3bc8ed04aa", "coordinates": [11.23227059841156, 43.78970403210444], "city": "Firenze", "country": "Italia", "numTips": 20, "numCheckins": 992, "_id": "4bfaa3d08f32ef3bc8ed04aa", "name": "Strizzi Garden", "categories": [{"primary": true, "id": "4bf58dd8d48988d11b941735", "name": "Pub"}], "postalCode": "50100"}
{"numUsers": 376, "state": "Toscana", "gadmCity": "Florence", "foursquareURL": "https://foursquare.com/v/gelateria-carab%C3%A9/4c01184719d8c9286d3f8829", "coordinates": [11.258166213069027, 43.7762050608626], "city": "Firenze", "country": "Italia", "numTips": 35, "numCheckins": 639, "_id": "4c01184719d8c9286d3f8829", "name": "Gelateria Carab\u00e9", "categories": [{"primary": true, "id": "4bf58dd8d48988d1c9941735", "name": "Ice Cream Shop"}], "postalCode": "50122"}
{"numUsers": 655, "state": "Toscana", "gadmCity": "Florence", "foursquareURL": "https://foursquare.com/v/perch%C3%A8-no/4c0118a019d8c928fb3f8829", "coordinates": [11.255448413632482, 43.77091777347673], "city": "Firenze", "country": "Italia", "numTips": 48, "numCheckins": 925, "_id": "4c0118a019d8c928fb3f8829", "name": "Perch\u00e8 No?", "categories": [{"primary": true, "id": "4bf58dd8d48988d1c9941735", "name": "Ice Cream Shop"}], "postalCode": "50122"}
{"numUsers": 829, "state": "Toscana", "gadmCity": "Florence", "foursquareURL": "https://foursquare.com/v/trattoria-13-gobbi/4c016d070bce20a1d3b8f6c6", "coordinates": [11.246797340921136, 43.772413985276614], "city": "Firenze", "country": "Italia", "numTips": 84, "numCheckins": 927, "_id": "4c016d070bce20a1d3b8f6c6", "name": "Trattoria 13 Gobbi", "categories": [{"primary": true, "id": "4bf58dd8d48988d110941735", "name": "Italian Restaurant"}], "postalCode": "50123"}
{"numUsers": 770, "state": "Toscana", "gadmCity": "Florence", "foursquareURL": "https://foursquare.com/v/fl%C3%B2-lounge-bar/4c01949e3ab80f474c6390ff", "coordinates": [11.266350746154785, 43.76208098432163], "city": "Firenze", "country": "Italia", "numTips": 13, "numCheckins": 1270, "_id": "4c01949e3ab80f474c6390ff", "name": "Fl\u00f2 Lounge Bar", "categories": [{"primary": true, "id": "4bf58dd8d48988d16d941735", "name": "Caf\u00e9"}], "postalCode": "50122"}
{"numUsers": 168, "state": "Toscana", "gadmCity": "Florence", "foursquareURL": "https://foursquare.com/v/ciao-hostel-florence/4c0560ff761ac9b63a701f74", "coordinates": [11.243244144316611, 43.781287802519074], "city": "Firenze", "country": "Italia", "numTips": 5, "numCheckins": 248, "_id": "4c0560ff761ac9b63a701f74", "name": "Ciao Hostel Florence", "categories": [{"primary": true, "id": "4bf58dd8d48988d1ee931735", "name": "Hostel"}], "postalCode": "50144"}
{"numUsers": 637, "state": "Toscana", "gadmCity": "Florence", "foursquareURL": "https://foursquare.com/v/luisa-via-roma/4c07a87ca0129c74a68ed2c9", "coordinates": [11.254425, 43.77244], "city": "Firenze", "country": "Italia", "numTips": 17, "numCheckins": 846, "_id": "4c07a87ca0129c74a68ed2c9", "name": "Luisa Via Roma", "categories": [{"primary": true, "id": "4bf58dd8d48988d104951735", "name": "Boutique"}], "postalCode": "50125"}
{"numUsers": 196, "state": "Toscana", "gadmCity": "Florence", "foursquareURL": "https://foursquare.com/v/facolt%C3%A0-di-ingegneria--s-marta/4c082475b235ef3bf75f8937", "coordinates": [11.253347396850586, 43.79815708152717], "city": "Firenze", "country": "Italia", "numTips": 8, "numCheckins": 1830, "_id": "4c082475b235ef3bf75f8937", "name": "Facolt\u00e0 di Ingegneria - S. Marta", "categories": [{"primary": true, "id": "4bf58dd8d48988d19e941735", "name": "College Engineering Building"}], "postalCode": "50139"}
{"numUsers": 1372, "state": "Toscana", "gadmCity": "Florence", "foursquareURL": "https://foursquare.com/v/fiesole/4c08bc94ffb8c9b652b96861", "coordinates": [11.295018196105957, 43.80672120561966], "city": "Firenze", "country": "Italia", "numTips": 16, "numCheckins": 2591, "_id": "4c08bc94ffb8c9b652b96861", "name": "Fiesole", "categories": [{"primary": true, "id": "50aa9e094b90af0d42d5de0d", "name": "City"}], "postalCode": "50014"}
{"numUsers": 1004, "state": "Toscana", "gadmCity": "Florence", "foursquareURL": "https://foursquare.com/v/four-seasons-hotel-firenze/4c091db3009a0f473024e7bf", "coordinates": [11.265953779220581, 43.776423786343216], "city": "Firenze", "country": "Italia", "numTips": 30, "numCheckins": 2088, "_id": "4c091db3009a0f473024e7bf", "name": "Four Seasons Hotel Firenze", "categories": [{"primary": true, "id": "4bf58dd8d48988d1fa931735", "name": "Hotel"}], "postalCode": "50121"}
{"numUsers": 302, "state": "Toscana", "gadmCity": "Florence", "foursquareURL": "https://foursquare.com/v/enoteca-pinchiorri/4c09500a6071a593a7b2dd32", "coordinates": [11.26223087310791, 43.770009172957735], "city": "Firenze", "country": "Italia", "numTips": 18, "numCheckins": 343, "_id": "4c09500a6071a593a7b2dd32", "name": "Enoteca Pinchiorri", "categories": [{"primary": true, "id": "4bf58dd8d48988d110941735", "name": "Italian Restaurant"}], "postalCode": "50122"}
{"numUsers": 478, "state": "Toscana", "gadmCity": "Florence", "categories": [{"primary": true, "id": "4bf58dd8d48988d110941735", "name": "Italian Restaurant"}], "coordinates": [11.242115117906874, 43.770518091644526], "city": "Firenze", "country": "Italia", "numTips": 29, "foursquareURL": "https://foursquare.com/v/allantico-ristoro-di-cambi/4c0aa72dffb8c9b6edf56b61", "numCheckins": 540, "_id": "4c0aa72dffb8c9b6edf56b61", "name": "All'Antico Ristoro Di' Cambi"}
{"numUsers": 380, "state": "Toscana", "gadmCity": "Florence", "categories": [{"primary": true, "id": "4bf58dd8d48988d164941735", "name": "Plaza"}], "coordinates": [11.271114349365234, 43.76379532865992], "city": "Firenze", "country": "Italia", "numTips": 3, "foursquareURL": "https://foursquare.com/v/piazza-ferrucci/4c0bff2e3c49d13a698807cd", "numCheckins": 871, "_id": "4c0bff2e3c49d13a698807cd", "name": "Piazza Ferrucci"}
{"numUsers": 56, "state": "Toscana", "gadmCity": "Florence", "foursquareURL": "https://foursquare.com/v/01-il-policentro/4c0e899a336220a1ee60cc77", "coordinates": [11.234207153320312, 43.79888500237823], "city": "Firenze", "country": "Italia", "numTips": 4, "numCheckins": 697, "_id": "4c0e899a336220a1ee60cc77", "name": "01 Il Policentro", "categories": [{"primary": true, "id": "4bf58dd8d48988d176941735", "name": "Gym"}], "postalCode": "50127"}
{"numUsers": 1244, "state": "Toscana", "gadmCity": "Florence", "foursquareURL": "https://foursquare.com/v/osteria-santo-spirito/4c0ffb6a6b7e2d7f23e62635", "coordinates": [11.247029797482055, 43.76652039742973], "city": "Firenze", "country": "Italia", "numTips": 114, "numCheckins": 1528, "_id": "4c0ffb6a6b7e2d7f23e62635", "name": "Osteria Santo Spirito", "categories": [{"primary": true, "id": "4bf58dd8d48988d110941735", "name": "Italian Restaurant"}], "postalCode": "50125"}
{"numUsers": 389, "state": "Toscana", "gadmCity": "Florence", "foursquareURL": "https://foursquare.com/v/teatro-della-pergola/4c11386c3ce120a18e5b091c", "coordinates": [11.261393350755808, 43.77334998757783], "city": "Firenze", "country": "Italia", "numTips": 8, "numCheckins": 1407, "_id": "4c11386c3ce120a18e5b091c", "name": "Teatro Della Pergola", "categories": [{"primary": true, "id": "4bf58dd8d48988d137941735", "name": "Theater"}], "postalCode": "50121"}
{"numUsers": 12, "state": "Toscana", "gadmCity": "Florence", "categories": [{"primary": true, "id": "4bf58dd8d48988d1d0941735", "name": "Dessert Shop"}], "coordinates": [11.28793716430664, 43.77456454892858], "city": "Firenze", "country": "Italia", "numTips": 2, "foursquareURL": "https://foursquare.com/v/gelateria-ciolli/4c152d54a5eb76b0b5e4c2b7", "numCheckins": 18, "_id": "4c152d54a5eb76b0b5e4c2b7", "name": "Gelateria Ciolli"}
{"numUsers": 353, "state": "Toscana", "gadmCity": "Florence", "categories": [{"primary": true, "id": "4bf58dd8d48988d1fa931735", "name": "Hotel"}], "coordinates": [11.25205542, 43.77031462], "city": "Firenze", "country": "Italia", "numTips": 16, "foursquareURL": "https://foursquare.com/v/nh-porta-rossa/4c15d554a5eb76b025f1c3b7", "numCheckins": 719, "_id": "4c15d554a5eb76b025f1c3b7", "name": "NH Porta Rossa"}
{"numUsers": 70, "state": "Toscana", "gadmCity": "Florence", "foursquareURL": "https://foursquare.com/v/coop-le-piagge-firenze/4c160f10a5eb76b05027c4b7", "coordinates": [11.171592, 43.790665], "city": "Firenze", "country": "Italia", "numTips": 4, "numCheckins": 171, "_id": "4c160f10a5eb76b05027c4b7", "name": "Coop Le Piagge, Firenze", "categories": [{"primary": true, "id": "4bf58dd8d48988d118951735", "name": "Grocery Store"}], "postalCode": "50145"}
{"numUsers": 42, "state": "Toscana", "gadmCity": "Florence", "categories": [{"primary": true, "id": "4bf58dd8d48988d137941735", "name": "Theater"}], "coordinates": [11.245424751406977, 43.76475496518918], "city": "Firenze", "country": "Italia", "numTips": 0, "foursquareURL": "https://foursquare.com/v/teatro-goldoni/4c166617a9c220a17b935a9d", "numCheckins": 59, "_id": "4c166617a9c220a17b935a9d", "name": "Teatro Goldoni"}
{"numUsers": 224, "state": "Toscana", "gadmCity": "Florence", "categories": [{"primary": true, "id": "4bf58dd8d48988d1e2941735", "name": "Beach"}], "coordinates": [11.264271846953239, 43.76531823079085], "city": "Firenze", "country": "Italia", "numTips": 2, "foursquareURL": "https://foursquare.com/v/spiaggia-arno/4c169483daf42d7fe8624466", "numCheckins": 363, "_id": "4c169483daf42d7fe8624466", "name": "Spiaggia Arno"}
{"numUsers": 196, "state": "Toscana", "gadmCity": "Florence", "foursquareURL": "https://foursquare.com/v/pizzaman/4c18c0484ff90f4724c80e49", "coordinates": [11.26222014427185, 43.77064834102308], "city": "Firenze", "country": "Italia", "numTips": 9, "numCheckins": 374, "_id": "4c18c0484ff90f4724c80e49", "name": "Pizzaman", "categories": [{"primary": true, "id": "4bf58dd8d48988d1ca941735", "name": "Pizza Place"}], "postalCode": "50100"}
{"numUsers": 765, "state": "Toscana", "gadmCity": "Florence", "categories": [{"primary": true, "id": "4bf58dd8d48988d16d941735", "name": "Caf\u00e9"}], "coordinates": [11.256843283052584, 43.77349779306933], "city": "Firenze", "country": "Italia", "numTips": 28, "foursquareURL": "https://foursquare.com/v/astor-cafe/4c1a712255e4c9b681c14723", "numCheckins": 1219, "_id": "4c1a712255e4c9b681c14723", "name": "Astor Cafe"}
{"numUsers": 373, "state": "Toscana", "gadmCity": "Florence", "foursquareURL": "https://foursquare.com/v/camping-michelangelo/4c1e29b863750f47ac43b967", "coordinates": [11.2684284, 43.761892318725586], "city": "Firenze", "country": "Italia", "numTips": 16, "numCheckins": 492, "_id": "4c1e29b863750f47ac43b967", "name": "Camping Michelangelo", "categories": [{"primary": true, "id": "4bf58dd8d48988d1e4941735", "name": "Campground"}], "postalCode": "50125"}
{"numUsers": 41, "state": "Toscana", "gadmCity": "Florence", "foursquareURL": "https://foursquare.com/v/tuscany-bike-tours/4c1e389eb489b713edb5a9c7", "coordinates": [11.265771389007568, 43.776609706905326], "city": "Firenze", "country": "Italia", "numTips": 3, "numCheckins": 72, "_id": "4c1e389eb489b713edb5a9c7", "name": "Tuscany Bike Tours", "categories": [{"primary": true, "id": "4bf58dd8d48988d1f6931735", "name": "General Travel"}], "postalCode": "50122"}
{"numUsers": 59, "state": "Toscana", "gadmCity": "Florence", "categories": [{"primary": true, "id": "4bf58dd8d48988d1e9931735", "name": "Rock Club"}], "coordinates": [11.297979354858398, 43.76907946176007], "city": "Firenze", "country": "Italia", "numTips": 2, "foursquareURL": "https://foursquare.com/v/exfila/4c2202b97e85c9283b44bb21", "numCheckins": 197, "_id": "4c2202b97e85c9283b44bb21", "name": "Exfila"}
{"numUsers": 212, "state": "Toscana", "gadmCity": "Florence", "categories": [{"primary": true, "id": "4bf58dd8d48988d110941735", "name": "Italian Restaurant"}], "coordinates": [11.250477967247893, 43.767222597982474], "city": "Firenze", "country": "Italia", "numTips": 19, "foursquareURL": "https://foursquare.com/v/osteria-tripperia-magazzino/4c23a1eaf7ced13a7085216d", "numCheckins": 246, "_id": "4c23a1eaf7ced13a7085216d", "name": "Osteria Tripperia Magazzino"}
{"numUsers": 136, "state": "Toscana", "gadmCity": "Florence", "categories": [{"primary": true, "id": "4bf58dd8d48988d16d941735", "name": "Caf\u00e9"}], "coordinates": [11.260856, 43.768111], "city": "Firenze", "country": "Italia", "numTips": 9, "foursquareURL": "https://foursquare.com/v/piccolo-caf%C3%A8/4c23ce5c136d20a1cccde061", "numCheckins": 286, "_id": "4c23ce5c136d20a1cccde061", "name": "Piccolo Caf\u00e8"}
{"numUsers": 394, "state": "Toscana", "gadmCity": "Florence", "foursquareURL": "https://foursquare.com/v/le-botteghe-di-donatello/4c289fb8e19720a1f125f858", "coordinates": [11.257121, 43.773397], "city": "Firenze", "country": "Italia", "numTips": 14, "numCheckins": 440, "_id": "4c289fb8e19720a1f125f858", "name": "Le Botteghe Di Donatello", "categories": [{"primary": true, "id": "4bf58dd8d48988d110941735", "name": "Italian Restaurant"}], "postalCode": "50122"}
{"numUsers": 48, "state": "Toscana", "gadmCity": "Florence", "categories": [{"primary": true, "id": "4bf58dd8d48988d110941735", "name": "Italian Restaurant"}], "coordinates": [11.25982681968022, 43.771608881220644], "city": "Firenze", "country": "Italia", "numTips": 5, "foursquareURL": "https://foursquare.com/v/ristorante-vecchia-firenze/4c2e3316e307d13a83210fda", "numCheckins": 50, "_id": "4c2e3316e307d13a83210fda", "name": "Ristorante Vecchia Firenze"}
{"numUsers": 1012, "state": "Toscana", "gadmCity": "Florence", "foursquareURL": "https://foursquare.com/v/officina-profumofarmaceutica/4c2efb0966e40f47dd2ec18b", "coordinates": [11.247992837622423, 43.77408316456334], "city": "Firenze", "country": "Italia", "numTips": 23, "numCheckins": 1159, "_id": "4c2efb0966e40f47dd2ec18b", "name": "Officina Profumo-Farmaceutica", "categories": [{"primary": true, "id": "52f2ab2ebcbc57f1066b8b23", "name": "Perfume Shop"}], "postalCode": "50123"}
{"numUsers": 16, "state": "Toscana", "gadmCity": "Florence", "foursquareURL": "https://foursquare.com/v/pizzeria-sottocasa/4c30e729ed37a593e4936903", "coordinates": [11.187599615823181, 43.657962706304666], "city": "Firenze", "country": "Italia", "numTips": 0, "numCheckins": 62, "_id": "4c30e729ed37a593e4936903", "name": "Pizzeria Sottocasa", "categories": [{"primary": true, "id": "4bf58dd8d48988d1ca941735", "name": "Pizza Place"}], "postalCode": "50026"}
{"numUsers": 93, "state": "Toscana", "gadmCity": "Florence", "foursquareURL": "https://foursquare.com/v/pasticceria-silvano-e-valentino/4c35bfee3ffc9521d23791f5", "coordinates": [11.223215460777283, 43.79010096108613], "city": "Firenze", "country": "Italia", "numTips": 6, "numCheckins": 212, "_id": "4c35bfee3ffc9521d23791f5", "name": "Pasticceria Silvano e Valentino", "categories": [{"primary": true, "id": "4bf58dd8d48988d1d0941735", "name": "Dessert Shop"}], "postalCode": "50127"}
{"numUsers": 2152, "state": "Toscana", "gadmCity": "Florence", "foursquareURL": "https://foursquare.com/v/piazza-san-marco/4c36c7e218e72d7fde7515f5", "coordinates": [11.25876009464264, 43.77783366950949], "city": "Firenze", "country": "Italia", "numTips": 13, "numCheckins": 3929, "_id": "4c36c7e218e72d7fde7515f5", "name": "Piazza San Marco", "categories": [{"primary": true, "id": "4bf58dd8d48988d164941735", "name": "Plaza"}], "postalCode": "50121"}
{"numUsers": 197, "state": "Toscana", "gadmCity": "Florence", "categories": [{"primary": true, "id": "4bf58dd8d48988d110941735", "name": "Italian Restaurant"}], "coordinates": [11.25521593730535, 43.773343890955886], "city": "Firenze", "country": "Italia", "numTips": 11, "foursquareURL": "https://foursquare.com/v/buca-san-giovanni/4c3b84bd1a1cd13a1d7db60d", "numCheckins": 209, "_id": "4c3b84bd1a1cd13a1d7db60d", "name": "Buca San Giovanni"}
{"numUsers": 193, "state": "Toscana", "gadmCity": "Florence", "categories": [{"primary": true, "id": "4bf58dd8d48988d1ca941735", "name": "Pizza Place"}], "coordinates": [11.301644517239389, 43.764725323702486], "city": "Firenze", "country": "Italia", "numTips": 11, "foursquareURL": "https://foursquare.com/v/orto-del-cigno/4c3f5455d691c9b68093890a", "numCheckins": 294, "_id": "4c3f5455d691c9b68093890a", "name": "Orto Del Cigno"}
{"numUsers": 671, "state": "Toscana", "gadmCity": "Florence", "categories": [{"primary": true, "id": "4bf58dd8d48988d103951735", "name": "Clothing Store"}], "coordinates": [11.254272758960724, 43.76969733393758], "city": "Firenze", "country": "Italia", "numTips": 24, "foursquareURL": "https://foursquare.com/v/hm/4c419667d691c9b6d6f18c0a", "numCheckins": 1010, "_id": "4c419667d691c9b6d6f18c0a", "name": "H&M"}
{"numUsers": 380, "state": "Toscana", "gadmCity": "Florence", "foursquareURL": "https://foursquare.com/v/hotel-brunelleschi/4c45d1568c1f20a1f2503e99", "coordinates": [11.255470554263525, 43.77180044587569], "city": "Firenze", "country": "Italia", "numTips": 15, "numCheckins": 665, "_id": "4c45d1568c1f20a1f2503e99", "name": "Hotel Brunelleschi", "categories": [{"primary": true, "id": "4bf58dd8d48988d1fa931735", "name": "Hotel"}], "postalCode": "50122"}
{"numUsers": 380, "state": "Toscana", "gadmCity": "Florence", "foursquareURL": "https://foursquare.com/v/cantinetta-dei-verrazzano/4c46ccbcc047be9a22812e79", "coordinates": [11.255509300379753, 43.77087848989074], "city": "Firenze", "country": "Italia", "numTips": 19, "numCheckins": 546, "_id": "4c46ccbcc047be9a22812e79", "name": "Cantinetta dei Verrazzano", "categories": [{"primary": true, "id": "4bf58dd8d48988d110941735", "name": "Italian Restaurant"}], "postalCode": "50122"}
{"numUsers": 245, "state": "Toscana", "gadmCity": "Florence", "categories": [{"primary": true, "id": "4bf58dd8d48988d110941735", "name": "Italian Restaurant"}], "coordinates": [11.250363, 43.7732845], "city": "Firenze", "country": "Italia", "numTips": 12, "foursquareURL": "https://foursquare.com/v/trattoria-al-trebbio/4c4742601ddec928e9cc9c32", "numCheckins": 284, "_id": "4c4742601ddec928e9cc9c32", "name": "Trattoria al Trebbio"}
{"numUsers": 100, "state": "Toscana", "gadmCity": "Florence", "categories": [{"primary": true, "id": "4bf58dd8d48988d111941735", "name": "Japanese Restaurant"}], "coordinates": [11.260900693437655, 43.77078620454965], "city": "Firenze", "country": "Italia", "numTips": 6, "foursquareURL": "https://foursquare.com/v/sushinami/4c4b2c9e46240f47bd7ef8f2", "numCheckins": 220, "_id": "4c4b2c9e46240f47bd7ef8f2", "name": "Sushinami"}
{"numUsers": 301, "state": "Toscana", "gadmCity": "Florence", "categories": [{"primary": true, "id": "4bf58dd8d48988d1e5931735", "name": "Music Venue"}], "coordinates": [11.251072883605957, 43.782218038779625], "city": "Firenze", "country": "Italia", "numTips": 12, "foursquareURL": "https://foursquare.com/v/off-bar/4c4b590bbad7a5934f7bbbab", "numCheckins": 776, "_id": "4c4b590bbad7a5934f7bbbab", "name": "Off Bar"}
{"numUsers": 251, "state": "Toscana", "gadmCity": "Florence", "categories": [{"primary": true, "id": "4bf58dd8d48988d110941735", "name": "Italian Restaurant"}], "coordinates": [11.249138535511376, 43.77203608901912], "city": "Firenze", "country": "Italia", "numTips": 17, "foursquareURL": "https://foursquare.com/v/trattoria-gargani/4c4c97c3f7cc1b8dec498a41", "numCheckins": 293, "_id": "4c4c97c3f7cc1b8dec498a41", "name": "Trattoria Gargani"}
{"numUsers": 187, "state": "Toscana", "gadmCity": "Florence", "foursquareURL": "https://foursquare.com/v/harrys-bar/4c4dbe89fb742d7f646d3d2d", "coordinates": [11.246916, 43.771202], "city": "Firenze", "country": "Italia", "numTips": 4, "numCheckins": 215, "_id": "4c4dbe89fb742d7f646d3d2d", "name": "Harry's Bar", "categories": [{"primary": true, "id": "4bf58dd8d48988d110941735", "name": "Italian Restaurant"}], "postalCode": "50123"}
{"numUsers": 338, "state": "Toscana", "gadmCity": "Florence", "categories": [{"primary": true, "id": "4bf58dd8d48988d16d941735", "name": "Caf\u00e9"}], "coordinates": [11.255221472449655, 43.77159520041635], "city": "Firenze", "country": "Italia", "numTips": 19, "foursquareURL": "https://foursquare.com/v/coronas-cafe/4c54488a1b46c9b6fa6954ce", "numCheckins": 533, "_id": "4c54488a1b46c9b6fa6954ce", "name": "Coronas Cafe"}
{"numUsers": 1072, "state": "Toscana", "gadmCity": "Florence", "foursquareURL": "https://foursquare.com/v/mcdonalds/4c55573306901b8de7ba4e4d", "coordinates": [11.249447464942932, 43.7761022973406], "city": "Firenze", "country": "Italia", "numTips": 12, "numCheckins": 1346, "_id": "4c55573306901b8de7ba4e4d", "name": "McDonald's", "categories": [{"primary": true, "id": "4bf58dd8d48988d16e941735", "name": "Fast Food Restaurant"}], "postalCode": "50123"}
{"numUsers": 507, "state": "Toscana", "gadmCity": "Florence", "foursquareURL": "https://foursquare.com/v/caff%C3%A8-duomo/4c568f21cc96c9b66ff0762e", "coordinates": [11.257252891295254, 43.77333789304691], "city": "Firenze", "country": "Italia", "numTips": 8, "numCheckins": 562, "_id": "4c568f21cc96c9b66ff0762e", "name": "Caff\u00e8 Duomo", "categories": [{"primary": true, "id": "4bf58dd8d48988d16d941735", "name": "Caf\u00e9"}], "postalCode": "50122"}
{"numUsers": 166, "state": "Toscana", "gadmCity": "Florence", "foursquareURL": "https://foursquare.com/v/il-re-gelato/4c580876b7a31b8dbf7951da", "coordinates": [11.2520170211792, 43.78072305145986], "city": "Firenze", "country": "Italia", "numTips": 11, "numCheckins": 256, "_id": "4c580876b7a31b8dbf7951da", "name": "Il Re Gelato", "categories": [{"primary": true, "id": "4bf58dd8d48988d1c9941735", "name": "Ice Cream Shop"}], "postalCode": "50129"}
{"numUsers": 3281, "state": "Toscana", "gadmCity": "Florence", "foursquareURL": "https://foursquare.com/v/piazza-dei-pitti/4c587ab12308be9aec8b5b6c", "coordinates": [11.249673, 43.765515], "city": "Firenze", "country": "Italia", "numTips": 26, "numCheckins": 4407, "_id": "4c587ab12308be9aec8b5b6c", "name": "Piazza dei Pitti", "categories": [{"primary": true, "id": "4bf58dd8d48988d164941735", "name": "Plaza"}], "postalCode": "50125"}
{"numUsers": 12, "state": "Toscana", "gadmCity": "Florence", "categories": [{"primary": true, "id": "4bf58dd8d48988d1c9941735", "name": "Ice Cream Shop"}], "coordinates": [11.26141549271525, 43.76755814019642], "city": "Firenze", "country": "Italia", "numTips": 2, "foursquareURL": "https://foursquare.com/v/gelateria-santa-croce/4c598b8cf54376b06e60848b", "numCheckins": 12, "_id": "4c598b8cf54376b06e60848b", "name": "Gelateria Santa Croce"}
{"numUsers": 129, "state": "Toscana", "gadmCity": "Florence", "foursquareURL": "https://foursquare.com/v/general-electric/4c5a6544f346c928e6064fca", "coordinates": [11.226072160529249, 43.80580209223141], "city": "Firenze", "country": "Italia", "numTips": 0, "numCheckins": 717, "_id": "4c5a6544f346c928e6064fca", "name": "General Electric", "categories": [{"primary": true, "id": "4bf58dd8d48988d124941735", "name": "Office"}], "postalCode": "50127"}
{"numUsers": 371, "state": "Toscana", "gadmCity": "Florence", "foursquareURL": "https://foursquare.com/v/esselunga/4c5bf6fe94fd0f475e39c745", "coordinates": [11.298538, 43.769565], "city": "Firenze", "country": "Italia", "numTips": 7, "numCheckins": 1752, "_id": "4c5bf6fe94fd0f475e39c745", "name": "Esselunga", "categories": [{"primary": true, "id": "52f2ab2ebcbc57f1066b8b46", "name": "Supermarket"}], "postalCode": "50100"}
{"numUsers": 21, "state": "Toscana", "gadmCity": "Florence", "foursquareURL": "https://foursquare.com/v/bar-luana--pasticceria-e-gelateria/4c5dcb06bfa59521b9f983ff", "coordinates": [11.234809964431378, 43.79411397845189], "city": "Firenze", "country": "Italia", "numTips": 4, "numCheckins": 159, "_id": "4c5dcb06bfa59521b9f983ff", "name": "Bar Luana - Pasticceria e Gelateria", "categories": [{"primary": true, "id": "4bf58dd8d48988d16d941735", "name": "Caf\u00e9"}], "postalCode": "50127"}
{"numUsers": 23, "state": "Toscana", "gadmCity": "Florence", "categories": [{"primary": true, "id": "4bf58dd8d48988d16d941735", "name": "Caf\u00e9"}], "coordinates": [11.263292041749507, 43.784550094997364], "city": "Firenze", "country": "Italia", "numTips": 5, "foursquareURL": "https://foursquare.com/v/bar-fuori-orario/4c6150eede6920a1eff69764", "numCheckins": 131, "_id": "4c6150eede6920a1eff69764", "name": "Bar Fuori Orario"}
{"numUsers": 139, "state": "Toscana", "gadmCity": "Florence", "foursquareURL": "https://foursquare.com/v/il-profeta/4c66ea629cb82d7f760c92d2", "coordinates": [11.244514, 43.773427], "city": "Firenze", "country": "Italia", "numTips": 7, "numCheckins": 157, "_id": "4c66ea629cb82d7f760c92d2", "name": "Il Profeta", "categories": [{"primary": true, "id": "4bf58dd8d48988d110941735", "name": "Italian Restaurant"}], "postalCode": "50123"}
{"numUsers": 1022, "state": "Toscana", "gadmCity": "Florence", "foursquareURL": "https://foursquare.com/v/piazza-indipendenza/4c699aaf8d22c928b3aeb745", "coordinates": [11.254036958617942, 43.779702269567075], "city": "Firenze", "country": "Italia", "numTips": 7, "numCheckins": 2188, "_id": "4c699aaf8d22c928b3aeb745", "name": "Piazza Indipendenza", "categories": [{"primary": true, "id": "4bf58dd8d48988d164941735", "name": "Plaza"}], "postalCode": "50129"}
{"numUsers": 41, "state": "Toscana", "gadmCity": "Florence", "foursquareURL": "https://foursquare.com/v/frecciarossa-av9502-fimi/4c6d147d99b9236ae626e4c9", "coordinates": [11.248058080673218, 43.776485759928164], "city": "Firenze", "country": "Italia", "numTips": 0, "numCheckins": 79, "_id": "4c6d147d99b9236ae626e4c9", "name": "Frecciarossa AV9502 FI>MI", "categories": [{"primary": true, "id": "4bf58dd8d48988d12a951735", "name": "Train"}], "postalCode": "50123"}
{"numUsers": 865, "state": "Toscana", "gadmCity": "Florence", "foursquareURL": "https://foursquare.com/v/lorenzo-demedici-ristorante-pizzeria/4c6e76c8f338236af66b0a1b", "coordinates": [11.252060955390842, 43.77459153822677], "city": "Firenze", "country": "Italia", "numTips": 37, "numCheckins": 970, "_id": "4c6e76c8f338236af66b0a1b", "name": "Lorenzo de'Medici Ristorante Pizzeria", "categories": [{"primary": true, "id": "4bf58dd8d48988d110941735", "name": "Italian Restaurant"}], "postalCode": "50123"}
{"numUsers": 157, "state": "Toscana", "gadmCity": "Florence", "foursquareURL": "https://foursquare.com/v/osteria-de-pazzi/4c6ed8dad274b60c0ac6d40d", "coordinates": [11.261024, 43.769787], "city": "Firenze", "country": "Italia", "numTips": 14, "numCheckins": 186, "_id": "4c6ed8dad274b60c0ac6d40d", "name": "Osteria De' Pazzi", "categories": [{"primary": true, "id": "4bf58dd8d48988d110941735", "name": "Italian Restaurant"}], "postalCode": "50122"}
{"numUsers": 349, "state": "Toscana", "gadmCity": "Florence", "categories": [{"primary": true, "id": "4bf58dd8d48988d1c9941735", "name": "Ice Cream Shop"}], "coordinates": [11.250614, 43.767208], "city": "Firenze", "country": "Italia", "numTips": 34, "foursquareURL": "https://foursquare.com/v/gelateria-della-passera/4c7182718efc3704ec98107d", "numCheckins": 434, "_id": "4c7182718efc3704ec98107d", "name": "Gelateria della Passera"}
{"numUsers": 203, "state": "Toscana", "gadmCity": "Florence", "foursquareURL": "https://foursquare.com/v/la-sosta-dei-golosi-2/4c74bd2e1b30a0934a8eed09", "coordinates": [11.253401303516503, 43.7728], "city": "Firenze", "country": "Italia", "numTips": 8, "numCheckins": 243, "_id": "4c74bd2e1b30a0934a8eed09", "name": "La Sosta Dei Golosi 2", "categories": [{"primary": true, "id": "4bf58dd8d48988d16d941735", "name": "Caf\u00e9"}], "postalCode": "50122"}
{"numUsers": 791, "state": "Toscana", "gadmCity": "Florence", "foursquareURL": "https://foursquare.com/v/piazza-santa-trinit%C3%A0/4c754d6adb52b1f7be5378dc", "coordinates": [11.251255273818968, 43.77010989080321], "city": "Firenze", "country": "Italia", "numTips": 2, "numCheckins": 1182, "_id": "4c754d6adb52b1f7be5378dc", "name": "Piazza Santa Trinit\u00e0", "categories": [{"primary": true, "id": "4bf58dd8d48988d164941735", "name": "Plaza"}], "postalCode": "50100"}
{"numUsers": 150, "state": "Toscana", "gadmCity": "Florence", "categories": [{"primary": true, "id": "4bf58dd8d48988d110941735", "name": "Italian Restaurant"}], "coordinates": [11.257983548040757, 43.77093180494951], "city": "Firenze", "country": "Italia", "numTips": 10, "foursquareURL": "https://foursquare.com/v/alle-murate/4c757d37c219224b18aca228", "numCheckins": 162, "_id": "4c757d37c219224b18aca228", "name": "Alle Murate"}
{"numUsers": 124, "state": "Toscana", "gadmCity": "Florence", "categories": [{"primary": true, "id": "4bf58dd8d48988d110941735", "name": "Italian Restaurant"}], "coordinates": [11.256815606881052, 43.77252084182577], "city": "Firenze", "country": "Italia", "numTips": 6, "foursquareURL": "https://foursquare.com/v/caminetto/4c77a9b059a3236aa853c218", "numCheckins": 128, "_id": "4c77a9b059a3236aa853c218", "name": "Caminetto"}
{"numUsers": 1541, "state": "Toscana", "gadmCity": "Florence", "foursquareURL": "https://foursquare.com/v/ponte-santa-tr%C3%ACnita/4c793020566db60cf5ec430e", "coordinates": [11.250300407409668, 43.76902329124564], "city": "Firenze", "country": "Italia", "numTips": 14, "numCheckins": 2333, "_id": "4c793020566db60cf5ec430e", "name": "Ponte Santa Tr\u00ecnita", "categories": [{"primary": true, "id": "4bf58dd8d48988d1df941735", "name": "Bridge"}], "postalCode": "50100"}
{"numUsers": 312, "state": "Toscana", "gadmCity": "Florence", "foursquareURL": "https://foursquare.com/v/frecciaclub--stazione-firenze-smn/4c7a8c0b2d3ba143588c91d0", "coordinates": [11.248220800916897, 43.77635664829922], "city": "Firenze", "country": "Italia", "numTips": 3, "numCheckins": 972, "_id": "4c7a8c0b2d3ba143588c91d0", "name": "FrecciaClub - Stazione Firenze SMN", "categories": [{"primary": true, "id": "4bf58dd8d48988d1f6931735", "name": "General Travel"}], "postalCode": "50123"}
{"numUsers": 210, "state": "Toscana", "gadmCity": "Florence", "categories": [{"primary": true, "id": "4bf58dd8d48988d132941735", "name": "Church"}], "coordinates": [11.253888, 43.7688321], "city": "Firenze", "country": "Italia", "numTips": 5, "foursquareURL": "https://foursquare.com/v/chiesa-di-santo-stefano-al-ponte-vecchio/4c7ab00993ef236a8667b30f", "numCheckins": 228, "_id": "4c7ab00993ef236a8667b30f", "name": "Chiesa Di Santo Stefano Al Ponte Vecchio"}
{"numUsers": 271, "state": "Toscana", "gadmCity": "Florence", "foursquareURL": "https://foursquare.com/v/giardini-di-lungarno-del-tempio/4c7ce6167a856dcb9651e3a7", "coordinates": [11.272625494550192, 43.76587635749327], "city": "Firenze", "country": "Italia", "numTips": 2, "numCheckins": 546, "_id": "4c7ce6167a856dcb9651e3a7", "name": "Giardini Di Lungarno Del Tempio", "categories": [{"primary": true, "id": "4bf58dd8d48988d162941735", "name": "Other Great Outdoors"}], "postalCode": "50121"}
{"numUsers": 109, "state": "Toscana", "gadmCity": "Florence", "foursquareURL": "https://foursquare.com/v/the-blob-club/4c81a2f0e602b1f7f71e957a", "coordinates": [11.257464, 43.768827], "city": "Firenze", "country": "Italia", "numTips": 9, "numCheckins": 408, "_id": "4c81a2f0e602b1f7f71e957a", "name": "The Blob Club", "categories": [{"primary": true, "id": "4bf58dd8d48988d11f941735", "name": "Nightclub"}], "postalCode": "50122"}
{"numUsers": 575, "state": "Toscana", "gadmCity": "Florence", "foursquareURL": "https://foursquare.com/v/trattoria-dalloste/4c84dbff74d7b60cef3396d8", "coordinates": [11.246869291703073, 43.77613737953586], "city": "Firenze", "country": "Italia", "numTips": 36, "numCheckins": 749, "_id": "4c84dbff74d7b60cef3396d8", "name": "Trattoria Dall'Oste", "categories": [{"primary": true, "id": "4bf58dd8d48988d110941735", "name": "Italian Restaurant"}], "postalCode": "50100"}
{"numUsers": 145, "state": "Toscana", "gadmCity": "Florence", "foursquareURL": "https://foursquare.com/v/zeb--zuppa-e-bollito/4c852fb8e602b1f70b3fb57a", "coordinates": [11.261376744289475, 43.7643597084376], "city": "Firenze", "country": "Italia", "numTips": 19, "numCheckins": 181, "_id": "4c852fb8e602b1f70b3fb57a", "name": "ZeB - Zuppa e Bollito", "categories": [{"primary": true, "id": "4bf58dd8d48988d110941735", "name": "Italian Restaurant"}], "postalCode": "50125"}
{"numUsers": 105, "state": "Toscana", "gadmCity": "Florence", "foursquareURL": "https://foursquare.com/v/osteria-delle-belle-donne/4c862cbde602b1f73771bd7a", "coordinates": [11.250686, 43.772067], "city": "Firenze", "country": "Italia", "numTips": 9, "numCheckins": 113, "_id": "4c862cbde602b1f73771bd7a", "name": "Osteria delle Belle Donne", "categories": [{"primary": true, "id": "4bf58dd8d48988d110941735", "name": "Italian Restaurant"}], "postalCode": "50123"}
{"numUsers": 158, "state": "Toscana", "gadmCity": "Florence", "foursquareURL": "https://foursquare.com/v/ge-oil--gas--nuovo-pignone-spa/4c877c3651ada1cdff064810", "coordinates": [11.226420772479399, 43.80483824485882], "city": "Firenze", "country": "Italia", "numTips": 1, "numCheckins": 872, "_id": "4c877c3651ada1cdff064810", "name": "GE Oil & Gas - Nuovo Pignone S.P.A.", "categories": [{"primary": true, "id": "4eb1bea83b7b6f98df247e06", "name": "Factory"}], "postalCode": "50100"}
{"numUsers": 256, "state": "Toscana", "gadmCity": "Florence", "categories": [{"primary": true, "id": "4bf58dd8d48988d110941735", "name": "Italian Restaurant"}], "coordinates": [11.266350746154785, 43.77131074435584], "city": "Firenze", "country": "Italia", "numTips": 14, "foursquareURL": "https://foursquare.com/v/cibr%C3%A8o-trattoria-cibr%C3%A8ino/4c8bc016f0ce236a508411ef", "numCheckins": 274, "_id": "4c8bc016f0ce236a508411ef", "name": "Cibr\u00e8o trattoria (Cibr\u00e8ino)"}
{"numUsers": 1309, "state": "Toscana", "gadmCity": "Florence", "foursquareURL": "https://foursquare.com/v/piazza-di-san-firenze/4c909e16de3d236a75f16c18", "coordinates": [11.257626, 43.769918], "city": "Firenze", "country": "Italia", "numTips": 10, "numCheckins": 1982, "_id": "4c909e16de3d236a75f16c18", "name": "Piazza di San Firenze", "categories": [{"primary": true, "id": "4bf58dd8d48988d164941735", "name": "Plaza"}], "postalCode": "50122"}
{"numUsers": 493, "state": "Toscana", "gadmCity": "Florence", "foursquareURL": "https://foursquare.com/v/caffetteria-delle-oblate/4c9256ceae45224bef6fef97", "coordinates": [11.2595, 43.772634], "city": "Firenze", "country": "Italia", "numTips": 28, "numCheckins": 809, "_id": "4c9256ceae45224bef6fef97", "name": "Caffetteria delle Oblate", "categories": [{"primary": true, "id": "4bf58dd8d48988d16d941735", "name": "Caf\u00e9"}], "postalCode": "50122"}
{"numUsers": 181, "state": "Toscana", "gadmCity": "Florence", "foursquareURL": "https://foursquare.com/v/gustavino/4c92908d1221b1f7889f12e2", "coordinates": [11.256289761090914, 43.770190818543], "city": "Firenze", "country": "Italia", "numTips": 13, "numCheckins": 213, "_id": "4c92908d1221b1f7889f12e2", "name": "Gustavino", "categories": [{"primary": true, "id": "4bf58dd8d48988d110941735", "name": "Italian Restaurant"}], "postalCode": "50122"}
{"numUsers": 50, "state": "Toscana", "gadmCity": "Florence", "foursquareURL": "https://foursquare.com/v/confesercenti-firenze/4c975b2503413704e1c28bef", "coordinates": [11.232928421420189, 43.771453977652705], "city": "Firenze", "country": "Italia", "numTips": 1, "numCheckins": 121, "_id": "4c975b2503413704e1c28bef", "name": "Confesercenti Firenze", "categories": [{"primary": true, "id": "4bf58dd8d48988d124941735", "name": "Office"}], "postalCode": "50100"}
{"numUsers": 68, "state": "Toscana", "gadmCity": "Florence", "categories": [{"primary": true, "id": "4bf58dd8d48988d1ae941735", "name": "University"}], "coordinates": [11.250328525618785, 43.76634340056173], "city": "Firenze", "country": "Italia", "numTips": 3, "foursquareURL": "https://foursquare.com/v/accademia-italiana/4c9871bb671db60c3b53b9f6", "numCheckins": 278, "_id": "4c9871bb671db60c3b53b9f6", "name": "Accademia Italiana"}
{"numUsers": 343, "state": "Toscana", "gadmCity": "Florence", "foursquareURL": "https://foursquare.com/v/gran-caff%C3%A9-san-marco/4c99c28aa004a1cd4e4d426e", "coordinates": [11.258474, 43.777744], "city": "Firenze", "country": "Italia", "numTips": 17, "numCheckins": 362, "_id": "4c99c28aa004a1cd4e4d426e", "name": "Gran Caff\u00e9 San Marco", "categories": [{"primary": true, "id": "4bf58dd8d48988d16d941735", "name": "Caf\u00e9"}], "postalCode": "50121"}
{"numUsers": 243, "state": "Toscana", "gadmCity": "Florence", "foursquareURL": "https://foursquare.com/v/teatro-puccini/4c9a3536553cef3b65c4d277", "coordinates": [11.225635013950175, 43.786164686153484], "city": "Firenze", "country": "Italia", "numTips": 2, "numCheckins": 476, "_id": "4c9a3536553cef3b65c4d277", "name": "Teatro Puccini", "categories": [{"primary": true, "id": "4bf58dd8d48988d137941735", "name": "Theater"}], "postalCode": "50144"}
{"numUsers": 39, "state": "Toscana", "gadmCity": "Florence", "categories": [{"primary": true, "id": "4bf58dd8d48988d132941735", "name": "Church"}], "coordinates": [11.247639656066895, 43.76516676875958], "city": "Firenze", "country": "Italia", "numTips": 1, "foursquareURL": "https://foursquare.com/v/chiesa-di-san-felice-in-piazza/4c9f18b0d3c2b60c5b9cd1bc", "numCheckins": 54, "_id": "4c9f18b0d3c2b60c5b9cd1bc", "name": "Chiesa Di San Felice In Piazza"}
{"numUsers": 554, "state": "Toscana", "gadmCity": "Florence", "foursquareURL": "https://foursquare.com/v/o-munaciello/4c9f91e203133704307473d5", "coordinates": [11.246636835519167, 43.767607736048454], "city": "Firenze", "country": "Italia", "numTips": 34, "numCheckins": 689, "_id": "4c9f91e203133704307473d5", "name": "O' Munaciello", "categories": [{"primary": true, "id": "4bf58dd8d48988d1ca941735", "name": "Pizza Place"}], "postalCode": "50124"}
{"numUsers": 3985, "state": "Toscana", "gadmCity": "Florence", "foursquareURL": "https://foursquare.com/v/basilica-di-santa-maria-novella/4ca033276c4795213fae8b0c", "coordinates": [11.249351, 43.774588], "city": "Firenze", "country": "Italia", "numTips": 36, "numCheckins": 4510, "_id": "4ca033276c4795213fae8b0c", "name": "Basilica di Santa Maria Novella", "categories": [{"primary": true, "id": "4bf58dd8d48988d132941735", "name": "Church"}], "postalCode": "50123"}
{"numUsers": 51, "state": "Toscana", "gadmCity": "Florence", "foursquareURL": "https://foursquare.com/v/conad-superstore/4ca70d47b7106dcba2f363a5", "coordinates": [11.186141967773438, 43.793696436696116], "city": "Firenze", "country": "Italia", "numTips": 2, "numCheckins": 204, "_id": "4ca70d47b7106dcba2f363a5", "name": "Conad Superstore", "categories": [{"primary": true, "id": "52f2ab2ebcbc57f1066b8b46", "name": "Supermarket"}], "postalCode": "50145"}
{"numUsers": 31, "state": "Toscana", "gadmCity": "Florence", "categories": [{"primary": true, "id": "4bf58dd8d48988d124941735", "name": "Office"}], "coordinates": [11.228019976403626, 43.81387247855257], "city": "Firenze", "country": "Italia", "numTips": 0, "foursquareURL": "https://foursquare.com/v/dedalus/4cac31c7f47ea1439f268f21", "numCheckins": 242, "_id": "4cac31c7f47ea1439f268f21", "name": "Dedalus"}
{"numUsers": 346, "state": "Toscana", "gadmCity": "Florence", "categories": [{"primary": true, "id": "4bf58dd8d48988d11e941735", "name": "Cocktail Bar"}], "coordinates": [11.258179, 43.767685], "city": "Firenze", "country": "Italia", "numTips": 26, "foursquareURL": "https://foursquare.com/v/libreria-brac/4cacd10844a8224ba8c73640", "numCheckins": 528, "_id": "4cacd10844a8224ba8c73640", "name": "Libreria Brac"}
{"numUsers": 481, "state": "Toscana", "gadmCity": "Florence", "foursquareURL": "https://foursquare.com/v/space-electronic/4cb1ff363f0676b0b91bfd0c", "coordinates": [11.246316, 43.77384], "city": "Firenze", "country": "Italia", "numTips": 15, "numCheckins": 597, "_id": "4cb1ff363f0676b0b91bfd0c", "name": "Space Electronic", "categories": [{"primary": true, "id": "4bf58dd8d48988d11f941735", "name": "Nightclub"}], "postalCode": "50123"}
{"numUsers": 3, "state": "Toscana", "gadmCity": "Florence", "foursquareURL": "https://foursquare.com/v/museo-storico-topografico--firenze-comera/4cb312f1dedbef3b3fc49d40", "coordinates": [11.270389, 43.7639405], "city": "Firenze", "country": "Italia", "numTips": 0, "numCheckins": 3, "_id": "4cb312f1dedbef3b3fc49d40", "name": "Museo Storico Topografico - Firenze com'era", "categories": [{"primary": true, "id": "4bf58dd8d48988d181941735", "name": "Museum"}], "postalCode": "50013"}
{"numUsers": 105, "state": "Toscana", "gadmCity": "Florence", "foursquareURL": "https://foursquare.com/v/rio-grande-firenze/4cbb370d0180721e5a499e61", "coordinates": [11.189546, 43.772122], "city": "Firenze", "country": "Italia", "numTips": 10, "numCheckins": 161, "_id": "4cbb370d0180721e5a499e61", "name": "Rio Grande Firenze", "categories": [{"primary": true, "id": "4bf58dd8d48988d16b941735", "name": "Brazilian Restaurant"}], "postalCode": "50142"}
{"numUsers": 191, "state": "Toscana", "gadmCity": "Florence", "foursquareURL": "https://foursquare.com/v/casamatta/4cbcb28743ec6dcb6284b231", "coordinates": [11.321282, 43.768258], "city": "Firenze", "country": "Italia", "numTips": 17, "numCheckins": 339, "_id": "4cbcb28743ec6dcb6284b231", "name": "Casamatta", "categories": [{"primary": true, "id": "4bf58dd8d48988d1ca941735", "name": "Pizza Place"}], "postalCode": "50136"}
{"numUsers": 146, "state": "Toscana", "gadmCity": "Florence", "categories": [{"primary": true, "id": "4bf58dd8d48988d145941735", "name": "Chinese Restaurant"}], "coordinates": [11.256649550014208, 43.783079927768156], "city": "Firenze", "country": "Italia", "numTips": 7, "foursquareURL": "https://foursquare.com/v/osir/4cc1f34e06c25481d98f8647", "numCheckins": 236, "_id": "4cc1f34e06c25481d98f8647", "name": "Osir"}
{"numUsers": 400, "state": "Toscana", "gadmCity": "Florence", "foursquareURL": "https://foursquare.com/v/basilica-di-santa-maria-del-santo-spirito/4cc592b138aaa093d9811962", "coordinates": [11.248283, 43.767359], "city": "Firenze", "country": "Italia", "numTips": 7, "numCheckins": 724, "_id": "4cc592b138aaa093d9811962", "name": "Basilica di Santa Maria del Santo Spirito", "categories": [{"primary": true, "id": "4bf58dd8d48988d132941735", "name": "Church"}], "postalCode": "50100"}
{"numUsers": 315, "state": "Toscana", "gadmCity": "Florence", "foursquareURL": "https://foursquare.com/v/la-spada/4cc8858d4650a35d261c891e", "coordinates": [11.249747365872249, 43.77235877570364], "city": "Firenze", "country": "Italia", "numTips": 21, "numCheckins": 410, "_id": "4cc8858d4650a35d261c891e", "name": "La spada", "categories": [{"primary": true, "id": "4bf58dd8d48988d110941735", "name": "Italian Restaurant"}], "postalCode": "50019"}
{"numUsers": 1662, "state": "Toscana", "gadmCity": "Florence", "foursquareURL": "https://foursquare.com/v/scudieri/4cd59eeadfb4a1cdc3525a5c", "coordinates": [11.254756521406259, 43.773277143038406], "city": "Firenze", "country": "Italia", "numTips": 63, "numCheckins": 2246, "_id": "4cd59eeadfb4a1cdc3525a5c", "name": "Scudieri", "categories": [{"primary": true, "id": "4bf58dd8d48988d16d941735", "name": "Caf\u00e9"}], "postalCode": "50129"}
{"numUsers": 56, "state": "Toscana", "gadmCity": "Florence", "foursquareURL": "https://foursquare.com/v/viadotto-dellindiano/4cdaee324006a143cb12d5b2", "coordinates": [11.186897136482388, 43.78015126895066], "city": "Firenze", "country": "Italia", "numTips": 1, "numCheckins": 157, "_id": "4cdaee324006a143cb12d5b2", "name": "Viadotto Dell'Indiano", "categories": [{"primary": true, "id": "4bf58dd8d48988d1f9931735", "name": "Road"}], "postalCode": "50142"}
{"numUsers": 695, "state": "Toscana", "gadmCity": "Florence", "foursquareURL": "https://foursquare.com/v/binario-17-e-18/4ce1468ec4f6a35d3c63da6c", "coordinates": [11.246566772460938, 43.77998716314319], "city": "Firenze", "country": "Italia", "numTips": 7, "numCheckins": 960, "_id": "4ce1468ec4f6a35d3c63da6c", "name": "Binario 17 e 18", "categories": [{"primary": true, "id": "4f4531504b9074f6e4fb0102", "name": "Platform"}], "postalCode": "50123"}
{"numUsers": 340, "state": "Toscana", "gadmCity": "Florence", "categories": [{"primary": true, "id": "4bf58dd8d48988d117951735", "name": "Candy Store"}], "coordinates": [11.256345113147908, 43.77339323812061], "city": "Firenze", "country": "Italia", "numTips": 9, "foursquareURL": "https://foursquare.com/v/lindt--maitre-chocolatier/4ce3b898bddcb1f757f17d89", "numCheckins": 375, "_id": "4ce3b898bddcb1f757f17d89", "name": "Lindt - Maitre Chocolatier"}
{"numUsers": 48, "state": "Toscana", "gadmCity": "Florence", "foursquareURL": "https://foursquare.com/v/misericordia-di-rifredi/4d0a476f972660fc45ba6e1c", "coordinates": [11.240238970168768, 43.80121702353756], "city": "Firenze", "country": "Italia", "numTips": 1, "numCheckins": 328, "_id": "4d0a476f972660fc45ba6e1c", "name": "Misericordia Di Rifredi", "categories": [{"primary": true, "id": "4bf58dd8d48988d194941735", "name": "Emergency Room"}], "postalCode": "50141"}
{"numUsers": 49, "state": "Toscana", "gadmCity": "Florence", "categories": [{"primary": true, "id": "4bf58dd8d48988d155941735", "name": "Gastropub"}], "coordinates": [11.262882408546053, 43.78453268151918], "city": "Firenze", "country": "Italia", "numTips": 1, "foursquareURL": "https://foursquare.com/v/gastronomia-galanti/4d12451c40e65481c3d48e1a", "numCheckins": 93, "_id": "4d12451c40e65481c3d48e1a", "name": "Gastronomia Galanti"}
{"numUsers": 2318, "state": "Toscana", "gadmCity": "Florence", "foursquareURL": "https://foursquare.com/v/allantico-vinaio/4d1f5a3a16cfb60c38985061", "coordinates": [11.257359981536865, 43.76835892564196], "city": "Firenze", "country": "Italia", "numTips": 213, "numCheckins": 2757, "_id": "4d1f5a3a16cfb60c38985061", "name": "All'Antico Vinaio", "categories": [{"primary": true, "id": "4bf58dd8d48988d1c5941735", "name": "Sandwich Place"}], "postalCode": "50122"}
{"numUsers": 22, "state": "Toscana", "gadmCity": "Florence", "categories": [], "coordinates": [11.249127465903111, 43.771161118297954], "city": "Firenze", "country": "Italia", "numTips": 2, "foursquareURL": "https://foursquare.com/v/wp-store/4d2c99ccf7a9224bcc9919a0", "numCheckins": 25, "_id": "4d2c99ccf7a9224bcc9919a0", "name": "WP Store"}
{"numUsers": 460, "state": "Toscana", "gadmCity": "Florence", "foursquareURL": "https://foursquare.com/v/pizzeria-o-vesuvio-napoletana-forno-legna/4d2ef39a49bb721ea9138395", "coordinates": [11.255804300308228, 43.77051198575413], "city": "Firenze", "country": "Italia", "numTips": 22, "numCheckins": 537, "_id": "4d2ef39a49bb721ea9138395", "name": "Pizzeria O' Vesuvio Napoletana Forno Legna", "categories": [{"primary": true, "id": "4bf58dd8d48988d1ca941735", "name": "Pizza Place"}], "postalCode": "50122"}
{"numUsers": 1181, "state": "Toscana", "gadmCity": "Florence", "foursquareURL": "https://foursquare.com/v/basilica-di-san-miniato-al-monte/4d33108298336dcb0b112af0", "coordinates": [11.264937, 43.759448], "city": "Firenze", "country": "Italia", "numTips": 32, "numCheckins": 1391, "_id": "4d33108298336dcb0b112af0", "name": "Basilica di San Miniato al Monte", "categories": [{"primary": true, "id": "4bf58dd8d48988d132941735", "name": "Church"}], "postalCode": "50125"}
{"numUsers": 80, "state": "Toscana", "gadmCity": "Florence", "foursquareURL": "https://foursquare.com/v/piscina-comunale-costoli/4d39c8be039eb60cde28e59c", "coordinates": [11.284346144279949, 43.77674307756219], "city": "Firenze", "country": "Italia", "numTips": 6, "numCheckins": 169, "_id": "4d39c8be039eb60cde28e59c", "name": "Piscina Comunale Costoli", "categories": [{"primary": true, "id": "4bf58dd8d48988d105941735", "name": "Gym Pool"}], "postalCode": "50137"}
{"numUsers": 104, "state": "Toscana", "gadmCity": "Florence", "categories": [{"primary": true, "id": "4bf58dd8d48988d105941735", "name": "Gym Pool"}], "coordinates": [11.284482426035993, 43.776292564331584], "city": "Firenze", "country": "Italia", "numTips": 3, "foursquareURL": "https://foursquare.com/v/piscina-costolina/4d3d5777ae942d4355349f9a", "numCheckins": 479, "_id": "4d3d5777ae942d4355349f9a", "name": "Piscina Costolina"}
{"numUsers": 192, "state": "Toscana", "gadmCity": "Florence", "categories": [{"primary": true, "id": "4bf58dd8d48988d1ca941735", "name": "Pizza Place"}], "coordinates": [11.248261, 43.771463], "city": "Firenze", "country": "Italia", "numTips": 13, "foursquareURL": "https://foursquare.com/v/pizzeria-tre-merli/4d4318cd32d5236a0283bea5", "numCheckins": 228, "_id": "4d4318cd32d5236a0283bea5", "name": "Pizzeria Tre Merli"}
{"numUsers": 425, "state": "Toscana", "gadmCity": "Florence", "foursquareURL": "https://foursquare.com/v/piazza-ognissanti/4d45ab35c3e5f04d57e5a620", "coordinates": [11.24548852443695, 43.77215132749658], "city": "Firenze", "country": "Italia", "numTips": 9, "numCheckins": 682, "_id": "4d45ab35c3e5f04d57e5a620", "name": "Piazza Ognissanti", "categories": [{"primary": true, "id": "4bf58dd8d48988d164941735", "name": "Plaza"}], "postalCode": "50123"}
{"numUsers": 319, "state": "Toscana", "gadmCity": "Florence", "foursquareURL": "https://foursquare.com/v/queen-victoria/4d497bce48a06dcbd1fb6fa2", "coordinates": [11.253926257114507, 43.769122093343384], "city": "Firenze", "country": "Italia", "numTips": 5, "numCheckins": 337, "_id": "4d497bce48a06dcbd1fb6fa2", "name": "Queen Victoria", "categories": [{"primary": true, "id": "4bf58dd8d48988d1c9941735", "name": "Ice Cream Shop"}], "postalCode": "50122"}
{"numUsers": 21, "state": "Toscana", "gadmCity": "Florence", "foursquareURL": "https://foursquare.com/v/il-centro-supermercati/4d4a5fd748a06dcb12f179a2", "coordinates": [11.266694068908691, 43.771946024870545], "city": "Firenze", "country": "Italia", "numTips": 0, "numCheckins": 27, "_id": "4d4a5fd748a06dcb12f179a2", "name": "Il Centro Supermercati", "categories": [{"primary": true, "id": "4bf58dd8d48988d118951735", "name": "Grocery Store"}], "postalCode": "50123"}
{"numUsers": 69, "state": "Toscana", "gadmCity": "Florence", "categories": [{"primary": true, "id": "4bf58dd8d48988d196941735", "name": "Hospital"}], "coordinates": [11.249730761358194, 43.80304550442868], "city": "Firenze", "country": "Italia", "numTips": 1, "foursquareURL": "https://foursquare.com/v/villa-ulivella-e-glicini/4d527063e0275481487cb4b6", "numCheckins": 121, "_id": "4d527063e0275481487cb4b6", "name": "Villa Ulivella e Glicini"}
{"numUsers": 75, "state": "Toscana", "gadmCity": "Florence", "foursquareURL": "https://foursquare.com/v/piazza-italia/4d569dc096ed5481b3af1670", "coordinates": [11.251402296410735, 43.776626719639026], "city": "Firenze", "country": "Italia", "numTips": 0, "numCheckins": 89, "_id": "4d569dc096ed5481b3af1670", "name": "Piazza Italia", "categories": [{"primary": true, "id": "4bf58dd8d48988d103951735", "name": "Clothing Store"}], "postalCode": "50123"}
{"numUsers": 450, "state": "Toscana", "gadmCity": "Florence", "foursquareURL": "https://foursquare.com/v/bb-hotel-firenze-novoli/4d694bf21a88b1f77e63295d", "coordinates": [11.215614374513898, 43.797676354784365], "city": "Firenze", "country": "Italia", "numTips": 11, "numCheckins": 713, "_id": "4d694bf21a88b1f77e63295d", "name": "B&B Hotel Firenze Novoli", "categories": [{"primary": true, "id": "4bf58dd8d48988d1fa931735", "name": "Hotel"}], "postalCode": "50127"}
{"numUsers": 41508, "state": "Toscana", "gadmCity": "Florence", "categories": [{"primary": true, "id": "50aa9e094b90af0d42d5de0d", "name": "City"}], "coordinates": [11.255450248718262, 43.77004016308211], "city": "Firenze", "country": "Italia", "numTips": 180, "foursquareURL": "https://foursquare.com/v/firenze--florence/4d6a8fe1de28224b392d51be", "numCheckins": 58616, "_id": "4d6a8fe1de28224b392d51be", "name": "Firenze | Florence"}
{"numUsers": 288, "state": "Toscana", "gadmCity": "Florence", "foursquareURL": "https://foursquare.com/v/osteria-allantico-mercato/4d70e6947760a1cdac04b6a9", "coordinates": [11.251822952060538, 43.777030261628816], "city": "Firenze", "country": "Italia", "numTips": 9, "numCheckins": 315, "_id": "4d70e6947760a1cdac04b6a9", "name": "Osteria All'Antico Mercato", "categories": [{"primary": true, "id": "4bf58dd8d48988d110941735", "name": "Italian Restaurant"}], "postalCode": "50123"}
{"numUsers": 2524, "state": "Toscana", "gadmCity": "Florence", "foursquareURL": "https://foursquare.com/v/piazza-san-lorenzo/4d814730208a548128c38467", "coordinates": [11.254860162734985, 43.774824070955646], "city": "Firenze", "country": "Italia", "numTips": 11, "numCheckins": 3467, "_id": "4d814730208a548128c38467", "name": "Piazza San Lorenzo", "categories": [{"primary": true, "id": "4bf58dd8d48988d164941735", "name": "Plaza"}], "postalCode": "50123"}
{"numUsers": 22, "state": "Toscana", "gadmCity": "Florence", "foursquareURL": "https://foursquare.com/v/diladdarno/4d8f4106cb9b224ba23c9641", "coordinates": [11.244677583666478, 43.76611773102105], "city": "Firenze", "country": "Italia", "numTips": 2, "numCheckins": 36, "_id": "4d8f4106cb9b224ba23c9641", "name": "Diladdarno", "categories": [{"primary": true, "id": "4bf58dd8d48988d1c4941735", "name": "Restaurant"}], "postalCode": "50124"}
{"numUsers": 41, "state": "Toscana", "gadmCity": "Florence", "categories": [{"primary": true, "id": "4bf58dd8d48988d110941735", "name": "Italian Restaurant"}], "coordinates": [11.301301178406142, 43.76486512753544], "city": "Firenze", "country": "Italia", "numTips": 3, "foursquareURL": "https://foursquare.com/v/trattoria-il-cigno/4d922cf68e5a1456f44e9ac0", "numCheckins": 46, "_id": "4d922cf68e5a1456f44e9ac0", "name": "Trattoria il Cigno"}
{"numUsers": 125, "state": "Toscana", "gadmCity": "Florence", "categories": [{"primary": true, "id": "4bf58dd8d48988d110941735", "name": "Italian Restaurant"}], "coordinates": [11.2825743937973, 43.7625981548294], "city": "Firenze", "country": "Italia", "numTips": 12, "foursquareURL": "https://foursquare.com/v/osteria-del-nacchero/4d9db45c7509b1f7e29e46a0", "numCheckins": 216, "_id": "4d9db45c7509b1f7e29e46a0", "name": "Osteria Del Nacchero"}
{"numUsers": 810, "state": "Toscana", "gadmCity": "Florence", "foursquareURL": "https://foursquare.com/v/il-david/4da4987f540ea1cdbe0ea9de", "coordinates": [11.25545394878978, 43.76957464453406], "city": "Firenze", "country": "Italia", "numTips": 16, "numCheckins": 837, "_id": "4da4987f540ea1cdbe0ea9de", "name": "Il David", "categories": [{"primary": true, "id": "4bf58dd8d48988d1ca941735", "name": "Pizza Place"}], "postalCode": "50122"}
{"numUsers": 66, "state": "Toscana", "gadmCity": "Florence", "foursquareURL": "https://foursquare.com/v/l%C3%AC-x-l%C3%AC/4dac28d64b22f071eadc346c", "coordinates": [11.255570187164444, 43.77923153815393], "city": "Firenze", "country": "Italia", "numTips": 10, "numCheckins": 250, "_id": "4dac28d64b22f071eadc346c", "name": "L\u00ec x L\u00ec", "categories": [{"primary": true, "id": "4bf58dd8d48988d1c5941735", "name": "Sandwich Place"}], "postalCode": "50129"}
{"numUsers": 173, "state": "Toscana", "gadmCity": "Florence", "foursquareURL": "https://foursquare.com/v/turkuaz--kebab/4dad6802a86e0d401b8652b9", "coordinates": [11.259145967603823, 43.775173593449374], "city": "Firenze", "country": "Italia", "numTips": 9, "numCheckins": 263, "_id": "4dad6802a86e0d401b8652b9", "name": "Turkuaz - Kebab", "categories": [{"primary": true, "id": "4f04af1f2fb6e1c99f3db0bb", "name": "Turkish Restaurant"}], "postalCode": "50122"}
{"numUsers": 85, "state": "Toscana", "gadmCity": "Florence", "foursquareURL": "https://foursquare.com/v/florence-american-cemetery-and-memorial/4db15d71cda14b702a42e6a9", "coordinates": [11.211016619455258, 43.6920450264065], "city": "Firenze", "country": "Italia", "numTips": 0, "numCheckins": 106, "_id": "4db15d71cda14b702a42e6a9", "name": "Florence American Cemetery and Memorial", "categories": [{"primary": true, "id": "4bf58dd8d48988d15c941735", "name": "Cemetery"}], "postalCode": "50023"}
{"numUsers": 363, "state": "Toscana", "gadmCity": "Florence", "categories": [{"primary": true, "id": "4bf58dd8d48988d12b941735", "name": "Courthouse"}], "coordinates": [11.224594723545371, 43.796476775482994], "city": "Firenze", "country": "Italia", "numTips": 9, "foursquareURL": "https://foursquare.com/v/palazzo-di-giustizia/4db47f7e6e8179a9137ea230", "numCheckins": 1106, "_id": "4db47f7e6e8179a9137ea230", "name": "Palazzo Di Giustizia"}
{"numUsers": 1817, "state": "Toscana", "gadmCity": "Florence", "foursquareURL": "https://foursquare.com/v/greve-in-chianti/4db7c6c04df0ded98baf1457", "coordinates": [11.317462921142578, 43.58222503215928], "city": "Firenze", "country": "Italia", "numTips": 9, "numCheckins": 2367, "_id": "4db7c6c04df0ded98baf1457", "name": "Greve in Chianti", "categories": [{"primary": true, "id": "50aa9e094b90af0d42d5de0d", "name": "City"}], "postalCode": "50022"}
{"numUsers": 10234, "state": "Toscana", "gadmCity": "Florence", "foursquareURL": "https://foursquare.com/v/hard-rock-cafe/4dc2e01ffa7608e86fe4269f", "coordinates": [11.253583431243896, 43.77202349764242], "city": "Firenze", "country": "Italia", "numTips": 228, "numCheckins": 12693, "_id": "4dc2e01ffa7608e86fe4269f", "name": "Hard Rock Cafe", "categories": [{"primary": true, "id": "4bf58dd8d48988d14e941735", "name": "American Restaurant"}], "postalCode": "50123"}
{"numUsers": 1583, "state": "Toscana", "gadmCity": "Florence", "categories": [{"primary": true, "id": "4bf58dd8d48988d110941735", "name": "Italian Restaurant"}], "coordinates": [11.254817407728227, 43.77398826165337], "city": "Firenze", "country": "Italia", "numTips": 42, "foursquareURL": "https://foursquare.com/v/osteria-dellagnolo/4dc2fe1852b1e8f9f797113f", "numCheckins": 1637, "_id": "4dc2fe1852b1e8f9f797113f", "name": "Osteria dell'Agnolo"}
{"numUsers": 465, "state": "Toscana", "gadmCity": "Florence", "foursquareURL": "https://foursquare.com/v/ponte-vespucci/4dc3b298ae608779d10e9725", "coordinates": [11.243465523555061, 43.772146283722954], "city": "Firenze", "country": "Italia", "numTips": 1, "numCheckins": 670, "_id": "4dc3b298ae608779d10e9725", "name": "Ponte Vespucci", "categories": [{"primary": true, "id": "4bf58dd8d48988d1df941735", "name": "Bridge"}], "postalCode": "50123"}
{"numUsers": 127, "state": "Toscana", "gadmCity": "Florence", "foursquareURL": "https://foursquare.com/v/giardino-di-campo-di-marte/4dd1614152b1f8915bdcc31c", "coordinates": [11.28576356741208, 43.781091791205505], "city": "Firenze", "country": "Italia", "numTips": 5, "numCheckins": 411, "_id": "4dd1614152b1f8915bdcc31c", "name": "Giardino di Campo Di Marte", "categories": [{"primary": true, "id": "4bf58dd8d48988d163941735", "name": "Park"}], "postalCode": "50137"}
{"numUsers": 38, "state": "Toscana", "gadmCity": "Florence", "foursquareURL": "https://foursquare.com/v/poste-italiane/4dd23b4bd4c0febf0fe05d61", "coordinates": [11.253383821536307, 43.77116287532493], "city": "Firenze", "country": "Italia", "numTips": 0, "numCheckins": 70, "_id": "4dd23b4bd4c0febf0fe05d61", "name": "Poste Italiane", "categories": [{"primary": true, "id": "4bf58dd8d48988d172941735", "name": "Post Office"}], "postalCode": "50123"}
{"numUsers": 83, "state": "Toscana", "gadmCity": "Florence", "foursquareURL": "https://foursquare.com/v/ai-due-g/4dd4f6a9d4c0e6b33e474660", "coordinates": [11.250234432856928, 43.778241162018695], "city": "Firenze", "country": "Italia", "numTips": 9, "numCheckins": 94, "_id": "4dd4f6a9d4c0e6b33e474660", "name": "Ai Due G", "categories": [{"primary": true, "id": "4bf58dd8d48988d110941735", "name": "Italian Restaurant"}], "postalCode": "50123"}
{"numUsers": 136, "state": "Toscana", "gadmCity": "Florence", "foursquareURL": "https://foursquare.com/v/trattoria-katti/4dd56bc0d22d38ef42b7a90e", "coordinates": [11.252338886260986, 43.775501921683805], "city": "Firenze", "country": "Italia", "numTips": 11, "numCheckins": 149, "_id": "4dd56bc0d22d38ef42b7a90e", "name": "Trattoria Katti", "categories": [{"primary": true, "id": "4bf58dd8d48988d110941735", "name": "Italian Restaurant"}], "postalCode": "50123"}
{"numUsers": 30, "state": "Toscana", "gadmCity": "Florence", "categories": [{"primary": true, "id": "4bf58dd8d48988d1f8931735", "name": "Bed & Breakfast"}], "coordinates": [11.255509300379753, 43.77108391792216], "city": "Firenze", "country": "Italia", "numTips": 1, "foursquareURL": "https://foursquare.com/v/residenza-della-signoria/4de7900052b19568bd7ef821", "numCheckins": 74, "_id": "4de7900052b19568bd7ef821", "name": "Residenza Della Signoria"}
{"numUsers": 276, "state": "Toscana", "gadmCity": "Florence", "categories": [{"primary": true, "id": "4bf58dd8d48988d110941735", "name": "Italian Restaurant"}], "coordinates": [11.257585007329798, 43.76835389905515], "city": "Firenze", "country": "Italia", "numTips": 15, "foursquareURL": "https://foursquare.com/v/tavernetta-della-signoria/4df1f7a6ae609e69dd931550", "numCheckins": 284, "_id": "4df1f7a6ae609e69dd931550", "name": "Tavernetta Della Signoria"}
{"numUsers": 170, "state": "Toscana", "gadmCity": "Florence", "foursquareURL": "https://foursquare.com/v/hotel-sempione/4df284d6fa76abc3d869a043", "coordinates": [11.25147425053992, 43.77680949598928], "city": "Firenze", "country": "Italia", "numTips": 2, "numCheckins": 240, "_id": "4df284d6fa76abc3d869a043", "name": "Hotel Sempione", "categories": [{"primary": true, "id": "4bf58dd8d48988d1fa931735", "name": "Hotel"}], "postalCode": "50123"}
{"numUsers": 353, "state": "Toscana", "gadmCity": "Florence", "categories": [{"primary": true, "id": "4bf58dd8d48988d110941735", "name": "Italian Restaurant"}], "coordinates": [11.259051866465269, 43.7705484443087], "city": "Firenze", "country": "Italia", "numTips": 7, "foursquareURL": "https://foursquare.com/v/rubaconte/4df4ebfc88772e1f8158b91a", "numCheckins": 370, "_id": "4df4ebfc88772e1f8158b91a", "name": "Rubaconte"}
{"numUsers": 17, "state": "Toscana", "gadmCity": "Florence", "categories": [{"primary": true, "id": "4bf58dd8d48988d137941735", "name": "Theater"}], "coordinates": [11.289639436995719, 43.77091482913887], "city": "Firenze", "country": "Italia", "numTips": 0, "foursquareURL": "https://foursquare.com/v/chille-de-la-balanza/4df72c44887712d325cf3c72", "numCheckins": 48, "_id": "4df72c44887712d325cf3c72", "name": "Chille De La Balanza"}
{"numUsers": 55, "state": "Toscana", "gadmCity": "Florence", "foursquareURL": "https://foursquare.com/v/roses/4df9120ae4cd2129701c2030", "coordinates": [11.250505, 43.770552], "city": "Firenze", "country": "Italia", "numTips": 6, "numCheckins": 76, "_id": "4df9120ae4cd2129701c2030", "name": "Rose's", "categories": [{"primary": true, "id": "4bf58dd8d48988d110941735", "name": "Italian Restaurant"}], "postalCode": "50123"}
{"numUsers": 618, "state": "Toscana", "gadmCity": "Florence", "foursquareURL": "https://foursquare.com/v/ristorante-cavallino/4dfdcd6cd164848a03fa42f9", "coordinates": [11.25606835317221, 43.76985088756676], "city": "Firenze", "country": "Italia", "numTips": 23, "numCheckins": 635, "_id": "4dfdcd6cd164848a03fa42f9", "name": "Ristorante Cavallino", "categories": [{"primary": true, "id": "4bf58dd8d48988d110941735", "name": "Italian Restaurant"}], "postalCode": "50122"}
{"numUsers": 9, "state": "Toscana", "gadmCity": "Florence", "categories": [{"primary": true, "id": "4bf58dd8d48988d132941735", "name": "Church"}], "coordinates": [11.265467554556734, 43.78612608010956], "city": "Firenze", "country": "Italia", "numTips": 0, "foursquareURL": "https://foursquare.com/v/chiesa-della-madonna-della-tosse/4dff76407d8bc001316c7fdd", "numCheckins": 12, "_id": "4dff76407d8bc001316c7fdd", "name": "Chiesa della Madonna della Tosse"}
{"numUsers": 660, "state": "Toscana", "gadmCity": "Florence", "categories": [{"primary": true, "id": "4bf58dd8d48988d181941735", "name": "Museum"}], "coordinates": [11.25127874314785, 43.76994041356197], "city": "Firenze", "country": "Italia", "numTips": 16, "foursquareURL": "https://foursquare.com/v/museo-salvatore-ferragamo/4e04a1a681307f7a633b9b5f", "numCheckins": 729, "_id": "4e04a1a681307f7a633b9b5f", "name": "Museo Salvatore Ferragamo"}
{"numUsers": 50, "state": "Toscana", "gadmCity": "Florence", "foursquareURL": "https://foursquare.com/v/il-magnifico/4e05e72352b165b7d7a44023", "coordinates": [11.257651430670299, 43.765250507173704], "city": "Firenze", "country": "Italia", "numTips": 1, "numCheckins": 73, "_id": "4e05e72352b165b7d7a44023", "name": "Il Magnifico", "categories": [{"primary": true, "id": "4bf58dd8d48988d1f8931735", "name": "Bed & Breakfast"}], "postalCode": "50125"}
{"numUsers": 49, "state": "Toscana", "gadmCity": "Florence", "categories": [{"primary": true, "id": "4bf58dd8d48988d1e2931735", "name": "Art Gallery"}], "coordinates": [11.252574, 43.769391], "city": "Firenze", "country": "Italia", "numTips": 3, "foursquareURL": "https://foursquare.com/v/aria-art-gallery/4e0f1fc452b1b27c1b8d51e7", "numCheckins": 76, "_id": "4e0f1fc452b1b27c1b8d51e7", "name": "Aria art Gallery"}
{"numUsers": 441, "state": "Toscana", "gadmCity": "Florence", "foursquareURL": "https://foursquare.com/v/museo-leonardo-da-vinci-firenze/4e1032148877ac23b6560618", "coordinates": [11.25669383181815, 43.774993385536696], "city": "Firenze", "country": "Italia", "numTips": 9, "numCheckins": 454, "_id": "4e1032148877ac23b6560618", "name": "Museo Leonardo Da Vinci Firenze", "categories": [{"primary": true, "id": "4bf58dd8d48988d190941735", "name": "History Museum"}], "postalCode": "50122"}
{"numUsers": 224, "state": "Toscana", "gadmCity": "Florence", "categories": [{"primary": true, "id": "4bf58dd8d48988d1ee931735", "name": "Hostel"}], "coordinates": [11.291265, 43.789761], "city": "Firenze", "country": "Italia", "numTips": 0, "foursquareURL": "https://foursquare.com/v/ostello-della-giovent%C3%B9-villa-camerat/4e14a25eb61c18a82703a5ae", "numCheckins": 306, "_id": "4e14a25eb61c18a82703a5ae", "name": "Ostello della Giovent\u00f9 'Villa Camerat'"}
{"numUsers": 455, "state": "Toscana", "gadmCity": "Florence", "categories": [{"primary": true, "id": "4bf58dd8d48988d110941735", "name": "Italian Restaurant"}], "coordinates": [11.253583083240207, 43.770123537129784], "city": "Firenze", "country": "Italia", "numTips": 18, "foursquareURL": "https://foursquare.com/v/la-grotta-guelfa/4e1a0354e4cd49a7e3f8d462", "numCheckins": 554, "_id": "4e1a0354e4cd49a7e3f8d462", "name": "La Grotta Guelfa"}
{"numUsers": 95, "state": "Toscana", "gadmCity": "Florence", "foursquareURL": "https://foursquare.com/v/t1--arcipressi/4e1c551c81dc8ea8b58ce44a", "coordinates": [11.209359169006348, 43.767514415272316], "city": "Firenze", "country": "Italia", "numTips": 2, "numCheckins": 349, "_id": "4e1c551c81dc8ea8b58ce44a", "name": "T1 - Arcipressi", "categories": [{"primary": true, "id": "4bf58dd8d48988d1fc931735", "name": "Light Rail Station"}], "postalCode": "50143"}
{"numUsers": 13, "state": "Toscana", "gadmCity": "Florence", "categories": [{"primary": true, "id": "4d4b7105d754a06374d81259", "name": "Food"}], "coordinates": [11.172519, 43.781137], "city": "Firenze", "country": "Italia", "numTips": 0, "foursquareURL": "https://foursquare.com/v/casa-del-popolo-di-ugnano/4e1f418a7d8ba0907aec12bb", "numCheckins": 102, "_id": "4e1f418a7d8ba0907aec12bb", "name": "Casa Del Popolo Di Ugnano"}
{"numUsers": 5, "state": "Toscana", "gadmCity": "Florence", "categories": [{"primary": true, "id": "4bf58dd8d48988d132941735", "name": "Church"}], "coordinates": [11.19545998272317, 43.752152001420846], "city": "Firenze", "country": "Italia", "numTips": 0, "foursquareURL": "https://foursquare.com/v/chiesa-santa-maria-madre-della-chiesa-a-torregalli/4e352ff6fa7656ba316e232e", "numCheckins": 7, "_id": "4e352ff6fa7656ba316e232e", "name": "Chiesa Santa Maria Madre della Chiesa a Torregalli"}
{"numUsers": 132, "state": "Toscana", "gadmCity": "Florence", "categories": [{"primary": true, "id": "4bf58dd8d48988d111941735", "name": "Japanese Restaurant"}], "coordinates": [11.14371813684148, 43.84820155895351], "city": "Firenze", "country": "Italia", "numTips": 10, "foursquareURL": "https://foursquare.com/v/kikko--cucina-giapponese--kaiten-sushi/4e465b26b61c03d0cd0a2ad2", "numCheckins": 241, "_id": "4e465b26b61c03d0cd0a2ad2", "name": "KIKKO - cucina giapponese - Kaiten Sushi"}
{"numUsers": 27, "state": "Toscana", "gadmCity": "Florence", "categories": [{"primary": true, "id": "4bf58dd8d48988d1c5941735", "name": "Sandwich Place"}], "coordinates": [11.254491, 43.770659], "city": "Firenze", "country": "Italia", "numTips": 3, "foursquareURL": "https://foursquare.com/v/lampredotto/4e53947ba8097c30ee805f57", "numCheckins": 35, "_id": "4e53947ba8097c30ee805f57", "name": "Lampredotto"}
{"numUsers": 17, "state": "Toscana", "gadmCity": "Florence", "categories": [{"primary": true, "id": "4bf58dd8d48988d16a941735", "name": "Bakery"}], "coordinates": [11.267587756726478, 43.78919634698831], "city": "Firenze", "country": "Italia", "numTips": 1, "foursquareURL": "https://foursquare.com/v/antica-bottega-del-pane/4e66051ad164ddd5e742ac14", "numCheckins": 41, "_id": "4e66051ad164ddd5e742ac14", "name": "Antica Bottega Del Pane"}
{"numUsers": 597, "state": "Toscana", "gadmCity": "Florence", "categories": [{"primary": true, "id": "4bf58dd8d48988d132941735", "name": "Church"}], "coordinates": [11.254894899464867, 43.774916607262575], "city": "Firenze", "country": "Italia", "numTips": 6, "foursquareURL": "https://foursquare.com/v/capella-medici/4e676f85b9939a72b2ffa50a", "numCheckins": 617, "_id": "4e676f85b9939a72b2ffa50a", "name": "Capella Medici"}
{"numUsers": 124, "state": "Toscana", "gadmCity": "Florence", "categories": [{"primary": true, "id": "4bf58dd8d48988d1f0931735", "name": "Airport Gate"}], "coordinates": [11.200311486623681, 43.80238518287137], "city": "Firenze", "country": "Italia", "numTips": 1, "foursquareURL": "https://foursquare.com/v/gate-6/4e68c71db61c7d64798865c1", "numCheckins": 163, "_id": "4e68c71db61c7d64798865c1", "name": "Gate 6"}
{"numUsers": 72, "state": "Toscana", "gadmCity": "Florence", "categories": [{"primary": true, "id": "4bf58dd8d48988d164941735", "name": "Plaza"}], "coordinates": [11.233992576599121, 43.7865556142224], "city": "Firenze", "country": "Italia", "numTips": 2, "foursquareURL": "https://foursquare.com/v/piazza-dalla-piccola/4e6b92ece4cdb37552123834", "numCheckins": 419, "_id": "4e6b92ece4cdb37552123834", "name": "Piazza Dalla Piccola"}
{"numUsers": 56, "state": "Toscana", "gadmCity": "Florence", "categories": [{"primary": true, "id": "4bf58dd8d48988d1f6931735", "name": "General Travel"}], "coordinates": [11.255060953390378, 43.780951407902826], "city": "Firenze", "country": "Italia", "numTips": 0, "foursquareURL": "https://foursquare.com/v/trenitalia/4e707659ae602b2e724867ba", "numCheckins": 65, "_id": "4e707659ae602b2e724867ba", "name": "Trenitalia"}
{"numUsers": 26, "state": "Toscana", "gadmCity": "Florence", "categories": [{"primary": true, "id": "4bf58dd8d48988d1f8931735", "name": "Bed & Breakfast"}], "coordinates": [11.244282, 43.78257], "city": "Firenze", "country": "Italia", "numTips": 0, "foursquareURL": "https://foursquare.com/v/alla-dimora-altea-bed--breakfast/4e71d42662e116e9457270ea", "numCheckins": 48, "_id": "4e71d42662e116e9457270ea", "name": "Alla Dimora Altea Bed & Breakfast"}
{"numUsers": 9, "state": "Toscana", "gadmCity": "Florence", "foursquareURL": "https://foursquare.com/v/monte-dei-paschi-di-siena/4e93edb8cc21f921aad0be1f", "coordinates": [11.218209351358247, 43.797796164104206], "city": "Firenze", "country": "Italia", "numTips": 0, "numCheckins": 9, "_id": "4e93edb8cc21f921aad0be1f", "name": "Monte Dei Paschi Di Siena", "categories": [{"primary": true, "id": "4bf58dd8d48988d10a951735", "name": "Bank"}], "postalCode": "50127"}
{"numUsers": 392, "state": "Toscana", "gadmCity": "Florence", "categories": [{"primary": true, "id": "4bf58dd8d48988d1df941735", "name": "Bridge"}], "coordinates": [11.234527730696017, 43.7747790465402], "city": "Firenze", "country": "Italia", "numTips": 1, "foursquareURL": "https://foursquare.com/v/ponte-della-vittoria/4e946e475c5c9bf8ad8efdb5", "numCheckins": 725, "_id": "4e946e475c5c9bf8ad8efdb5", "name": "Ponte della Vittoria"}
{"numUsers": 126, "state": "Toscana", "gadmCity": "Florence", "categories": [{"primary": true, "id": "4cce455aebf7b749d5e191f5", "name": "Soccer Field"}], "coordinates": [11.302945892921231, 43.77972274865662], "city": "Firenze", "country": "Italia", "numTips": 3, "foursquareURL": "https://foursquare.com/v/centro-tecnico-figc--coverciano/4ea280e5490102dac2a30128", "numCheckins": 266, "_id": "4ea280e5490102dac2a30128", "name": "Centro Tecnico F.I.G.C  Coverciano"}
{"numUsers": 2200, "state": "Toscana", "gadmCity": "Florence", "categories": [{"primary": true, "id": "4bf58dd8d48988d164941735", "name": "Plaza"}], "coordinates": [11.248970031738281, 43.77571108550004], "city": "Firenze", "country": "Italia", "numTips": 13, "foursquareURL": "https://foursquare.com/v/piazza-della-stazione/4ebeca570aaf6450ba3bf73c", "numCheckins": 3163, "_id": "4ebeca570aaf6450ba3bf73c", "name": "Piazza della Stazione"}
{"numUsers": 17, "state": "Toscana", "gadmCity": "Florence", "foursquareURL": "https://foursquare.com/v/casa-di-cura-leonardo/4ec0e3779adfe2b7b6a026e9", "coordinates": [10.938349505815186, 43.7327015029024], "city": "Firenze", "country": "Italia", "numTips": 0, "numCheckins": 21, "_id": "4ec0e3779adfe2b7b6a026e9", "name": "Casa di cura Leonardo", "categories": [{"primary": true, "id": "4bf58dd8d48988d196941735", "name": "Hospital"}], "postalCode": "50059"}
{"numUsers": 3155, "state": "Toscana", "gadmCity": "Florence", "foursquareURL": "https://foursquare.com/v/cupola-del-duomo-di-firenze/4ec290a861af06192c7c6efd", "coordinates": [11.256823539733887, 43.77315458868269], "city": "Firenze", "country": "Italia", "numTips": 56, "numCheckins": 3441, "_id": "4ec290a861af06192c7c6efd", "name": "Cupola del Duomo di Firenze", "categories": [{"primary": true, "id": "4bf58dd8d48988d165941735", "name": "Scenic Lookout"}], "postalCode": "50122"}
{"numUsers": 46, "state": "Toscana", "gadmCity": "Florence", "categories": [{"primary": true, "id": "4bf58dd8d48988d122951735", "name": "Electronics Store"}], "coordinates": [11.255481624580897, 43.77261170476429], "city": "Firenze", "country": "Italia", "numTips": 2, "foursquareURL": "https://foursquare.com/v/centro-tim/4edcebb32c5b50aba190b513", "numCheckins": 65, "_id": "4edcebb32c5b50aba190b513", "name": "Centro Tim"}
{"numUsers": 43, "state": "Toscana", "gadmCity": "Prato", "foursquareURL": "https://foursquare.com/v/fit-star/4ee1ddf0490152e4bc9af6f0", "coordinates": [11.065692616051278, 43.873397822680055], "city": "Firenze", "country": "Italia", "numTips": 1, "numCheckins": 841, "_id": "4ee1ddf0490152e4bc9af6f0", "name": "Fit Star", "categories": [{"primary": true, "id": "4bf58dd8d48988d176941735", "name": "Gym"}], "postalCode": "59100"}
{"numUsers": 513, "state": "Toscana", "gadmCity": "Florence", "foursquareURL": "https://foursquare.com/v/the-space-cinema/4ee3a940823180a98a956bd4", "coordinates": [11.228612075774908, 43.79040265202363], "city": "Firenze", "country": "Italia", "numTips": 27, "numCheckins": 1539, "_id": "4ee3a940823180a98a956bd4", "name": "The Space Cinema", "categories": [{"primary": true, "id": "4bf58dd8d48988d17f941735", "name": "Movie Theater"}], "postalCode": "50127"}
{"numUsers": 303, "state": "Toscana", "gadmCity": "Florence", "categories": [{"primary": true, "id": "4bf58dd8d48988d110941735", "name": "Italian Restaurant"}], "coordinates": [11.271883657756295, 43.76596960779664], "city": "Firenze", "country": "Italia", "numTips": 21, "foursquareURL": "https://foursquare.com/v/outside-bistrot/4f2ee002e4b0c1a81a3a635e", "numCheckins": 447, "_id": "4f2ee002e4b0c1a81a3a635e", "name": "Outside Bistrot"}
{"numUsers": 45, "state": "Toscana", "gadmCity": "Florence", "categories": [{"primary": true, "id": "4bf58dd8d48988d124941735", "name": "Office"}], "coordinates": [11.258542614795207, 43.78200033575414], "city": "Firenze", "country": "Italia", "numTips": 0, "foursquareURL": "https://foursquare.com/v/fondazione-sistema-toscana/4fc639eee4b035dd6524eefb", "numCheckins": 990, "_id": "4fc639eee4b035dd6524eefb", "name": "Fondazione Sistema Toscana"}
{"numUsers": 10, "state": "Toscana", "gadmCity": "Florence", "categories": [{"primary": true, "id": "4bf58dd8d48988d11f941735", "name": "Nightclub"}], "coordinates": [11.234234429825039, 43.777832295677335], "city": "Firenze", "country": "Italia", "numTips": 0, "foursquareURL": "https://foursquare.com/v/sferisterio/4fe0e8eae4b0b791d32bbcd6", "numCheckins": 10, "_id": "4fe0e8eae4b0b791d32bbcd6", "name": "Sferisterio"}
{"numUsers": 517, "state": "Toscana", "gadmCity": "Florence", "categories": [{"primary": true, "id": "4bf58dd8d48988d110941735", "name": "Italian Restaurant"}], "coordinates": [11.254962, 43.773377], "city": "Firenze", "country": "Italia", "numTips": 9, "foursquareURL": "https://foursquare.com/v/ristorante-caff%C3%A9-giotto/4fe76226e4b079b3819b25a6", "numCheckins": 550, "_id": "4fe76226e4b079b3819b25a6", "name": "Ristorante Caff\u00e9 Giotto"}
{"numUsers": 54, "state": "Toscana", "gadmCity": "Florence", "foursquareURL": "https://foursquare.com/v/hotel-santa-croce/4fedafa5e4b0b1e830f1c3eb", "coordinates": [11.259399, 43.769371], "city": "Firenze", "country": "Italia", "numTips": 4, "numCheckins": 95, "_id": "4fedafa5e4b0b1e830f1c3eb", "name": "Hotel Santa Croce", "categories": [{"primary": true, "id": "4bf58dd8d48988d1fa931735", "name": "Hotel"}], "postalCode": "50122"}
{"numUsers": 11, "state": "Toscana", "gadmCity": "Florence", "foursquareURL": "https://foursquare.com/v/indire/4ffea55ce4b01d5de4f91086", "coordinates": [11.264321667815507, 43.77056914469972], "city": "Firenze", "country": "Italia", "numTips": 0, "numCheckins": 13, "_id": "4ffea55ce4b01d5de4f91086", "name": "INDIRE", "categories": [{"primary": true, "id": "4bf58dd8d48988d130941735", "name": "Building"}], "postalCode": "50100"}
{"numUsers": 91, "state": "Toscana", "gadmCity": "Florence", "categories": [{"primary": true, "id": "4bf58dd8d48988d1c5941735", "name": "Sandwich Place"}], "coordinates": [11.261725480666748, 43.77050764312729], "city": "Firenze", "country": "Italia", "numTips": 7, "foursquareURL": "https://foursquare.com/v/pinos-sandwiches/500e9067e4b0878eb5ac2f50", "numCheckins": 121, "_id": "500e9067e4b0878eb5ac2f50", "name": "Pino's Sandwiches"}
{"numUsers": 179, "state": "Toscana", "gadmCity": "Florence", "foursquareURL": "https://foursquare.com/v/hotel-firenze-number-nine/50229fe7e4b052a447a22a1c", "coordinates": [11.254785060882568, 43.77468849988797], "city": "Firenze", "country": "Italia", "numTips": 14, "numCheckins": 320, "_id": "50229fe7e4b052a447a22a1c", "name": "Hotel Firenze Number Nine", "categories": [{"primary": true, "id": "4bf58dd8d48988d1fa931735", "name": "Hotel"}], "postalCode": "50123"}
{"numUsers": 93, "state": "Toscana", "gadmCity": "Florence", "foursquareURL": "https://foursquare.com/v/ristorante-il-palagio/503c7bcd39502e31f7119994", "coordinates": [11.26645803451538, 43.777028026056485], "city": "Firenze", "country": "Italia", "numTips": 3, "numCheckins": 123, "_id": "503c7bcd39502e31f7119994", "name": "Ristorante Il Palagio", "categories": [{"primary": true, "id": "4bf58dd8d48988d110941735", "name": "Italian Restaurant"}], "postalCode": "50121"}
{"numUsers": 13, "state": "Toscana", "gadmCity": "Florence", "categories": [{"primary": true, "id": "4bf58dd8d48988d1ff931735", "name": "Convention Center"}], "coordinates": [11.258155142451665, 43.772678274401535], "city": "Firenze", "country": "Italia", "numTips": 0, "foursquareURL": "https://foursquare.com/v/palazzo-strozzi-sacrati/506c4748e4b06dd5bb1770fa", "numCheckins": 19, "_id": "506c4748e4b06dd5bb1770fa", "name": "Palazzo Strozzi Sacrati"}
{"numUsers": 12, "state": "Toscana", "gadmCity": "Florence", "foursquareURL": "https://foursquare.com/v/silathai-massage/50835e03e4b03eedbea834d8", "coordinates": [11.24508714158106, 43.766521822703034], "city": "Firenze", "country": "Italia", "numTips": 1, "numCheckins": 22, "_id": "50835e03e4b03eedbea834d8", "name": "Silathai Massage", "categories": [{"primary": true, "id": "52f2ab2ebcbc57f1066b8b3c", "name": "Massage Studio"}], "postalCode": "50124"}
{"numUsers": 69, "state": "Toscana", "gadmCity": "Florence", "foursquareURL": "https://foursquare.com/v/florencetown/50aa16cf067d18bb93327b6d", "coordinates": [11.255171298980713, 43.770489518080986], "city": "Firenze", "country": "Italia", "numTips": 1, "numCheckins": 81, "_id": "50aa16cf067d18bb93327b6d", "name": "FLORENCETOWN", "categories": [{"primary": true, "id": "4f4530164b9074f6e4fb00ff", "name": "Tourist Information Center"}], "postalCode": "50123"}
{"numUsers": 349, "state": "Toscana", "gadmCity": "Florence", "foursquareURL": "https://foursquare.com/v/tamer%C3%B2--pasta-bar/50ca31ffe4b0ae62aed45243", "coordinates": [11.247451, 43.766512], "city": "Firenze", "country": "Italia", "numTips": 26, "numCheckins": 448, "_id": "50ca31ffe4b0ae62aed45243", "name": "Tamer\u00f2 - Pasta Bar", "categories": [{"primary": true, "id": "4bf58dd8d48988d110941735", "name": "Italian Restaurant"}], "postalCode": "50125"}
{"numUsers": 4, "state": "Toscana", "gadmCity": "Florence", "foursquareURL": "https://foursquare.com/v/pls--consulenza--formazione/50ebdeb1e4b0eb968cfdfb5d", "coordinates": [11.257197538731068, 43.784801837776655], "city": "Firenze", "country": "Italia", "numTips": 2, "numCheckins": 50, "_id": "50ebdeb1e4b0eb968cfdfb5d", "name": "PLS | Consulenza & Formazione", "categories": [{"primary": true, "id": "4bf58dd8d48988d124941735", "name": "Office"}], "postalCode": "50129"}
{"numUsers": 15993, "state": "Toscana", "gadmCity": "Florence", "foursquareURL": "https://foursquare.com/v/galleria-degli-uffizi/51191cdfb0ed67c8fff5610b", "coordinates": [11.255493164062498, 43.768289195879554], "city": "Firenze", "country": "Italia", "numTips": 328, "numCheckins": 17556, "_id": "51191cdfb0ed67c8fff5610b", "name": "Galleria degli Uffizi", "categories": [{"primary": true, "id": "4bf58dd8d48988d1e2931735", "name": "Art Gallery"}], "postalCode": "50122"}
{"numUsers": 21, "state": "Toscana", "gadmCity": "Florence", "categories": [{"primary": true, "id": "4bf58dd8d48988d16d941735", "name": "Caf\u00e9"}], "coordinates": [11.252437333918033, 43.77348400636644], "city": "Firenze", "country": "Italia", "numTips": 2, "foursquareURL": "https://foursquare.com/v/caffettiera-moka-arra/5128e3c7e4b067b1eb3c84b2", "numCheckins": 21, "_id": "5128e3c7e4b067b1eb3c84b2", "name": "Caffettiera Moka Arra"}
{"numUsers": 319, "state": "Toscana", "gadmCity": "Florence", "categories": [{"primary": true, "id": "4bf58dd8d48988d1c4941735", "name": "Restaurant"}], "coordinates": [11.251064666195203, 43.77046078477874], "city": "Firenze", "country": "Italia", "numTips": 16, "foursquareURL": "https://foursquare.com/v/moy%C3%A9/5141e70ae4b091a08383b642", "numCheckins": 378, "_id": "5141e70ae4b091a08383b642", "name": "Moy\u00e9"}
{"numUsers": 345, "state": "Toscana", "gadmCity": "Florence", "categories": [{"primary": true, "id": "4f2a25ac4b909258e854f55f", "name": "Neighborhood"}], "coordinates": [11.276572823869229, 43.77743507394145], "city": "Firenze", "country": "Italia", "numTips": 0, "foursquareURL": "https://foursquare.com/v/campo-di-marte/514495d9e4b0315279c18582", "numCheckins": 424, "_id": "514495d9e4b0315279c18582", "name": "Campo di Marte"}
{"numUsers": 151, "state": "Toscana", "gadmCity": "Florence", "foursquareURL": "https://foursquare.com/v/una-hotel-vittoria/515afb00e4b05dea16a97b90", "coordinates": [11.234184624103216, 43.770789186868505], "city": "Firenze", "country": "Italia", "numTips": 13, "numCheckins": 245, "_id": "515afb00e4b05dea16a97b90", "name": "UNA Hotel Vittoria", "categories": [{"primary": true, "id": "4bf58dd8d48988d133951735", "name": "Roof Deck"}], "postalCode": "50143"}
{"numUsers": 230, "state": "Toscana", "gadmCity": "Florence", "foursquareURL": "https://foursquare.com/v/mr-pizza/51618f23e4b0d19a970dac89", "coordinates": [11.255631073986562, 43.77330182093349], "city": "Firenze", "country": "Italia", "numTips": 11, "numCheckins": 256, "_id": "51618f23e4b0d19a970dac89", "name": "Mr Pizza", "categories": [{"primary": true, "id": "4bf58dd8d48988d1ca941735", "name": "Pizza Place"}], "postalCode": "50122"}
{"numUsers": 141, "state": "Toscana", "gadmCity": "Florence", "categories": [{"primary": true, "id": "4bf58dd8d48988d110941735", "name": "Italian Restaurant"}], "coordinates": [11.256688296591575, 43.77004568169554], "city": "Firenze", "country": "Italia", "numTips": 14, "foursquareURL": "https://foursquare.com/v/osteria-vini-vecchi-sapori/518aae69498ee6e14993477e", "numCheckins": 148, "_id": "518aae69498ee6e14993477e", "name": "Osteria Vini Vecchi Sapori"}
{"numUsers": 758, "state": "Toscana", "gadmCity": "Florence", "foursquareURL": "https://foursquare.com/v/arnold-coffee/51b9cb73498ea30f64ed5776", "coordinates": [11.250084991595434, 43.77465765940893], "city": "Firenze", "country": "Italia", "numTips": 30, "numCheckins": 1023, "_id": "51b9cb73498ea30f64ed5776", "name": "Arnold Coffee", "categories": [{"primary": true, "id": "4bf58dd8d48988d1e0931735", "name": "Coffee Shop"}], "postalCode": "50121"}
{"numUsers": 206, "state": "Toscana", "gadmCity": "Florence", "categories": [{"primary": true, "id": "4bf58dd8d48988d1c9941735", "name": "Ice Cream Shop"}], "coordinates": [11.249697552338436, 43.77416065299229], "city": "Firenze", "country": "Italia", "numTips": 13, "foursquareURL": "https://foursquare.com/v/shake-cafe/51cb099a498e4603fe04e0cc", "numCheckins": 225, "_id": "51cb099a498e4603fe04e0cc", "name": "Shake Cafe"}
{"numUsers": 37, "state": "Toscana", "gadmCity": "Florence", "categories": [{"primary": true, "id": "4bf58dd8d48988d16d941735", "name": "Caf\u00e9"}], "coordinates": [11.260136802663004, 43.76655311504381], "city": "Firenze", "country": "Italia", "numTips": 0, "foursquareURL": "https://foursquare.com/v/il-rubaconte/51d5bdd7498eea429e140ba6", "numCheckins": 39, "_id": "51d5bdd7498eea429e140ba6", "name": "Il Rubaconte"}
{"numUsers": 75, "state": "Toscana", "gadmCity": "Florence", "foursquareURL": "https://foursquare.com/v/hotel-veneto/51ddc70a498e4da5856b23c3", "coordinates": [11.256234409064845, 43.778654465689435], "city": "Firenze", "country": "Italia", "numTips": 1, "numCheckins": 109, "_id": "51ddc70a498e4da5856b23c3", "name": "Hotel Veneto", "categories": [{"primary": true, "id": "4bf58dd8d48988d1fa931735", "name": "Hotel"}], "postalCode": "50129"}
{"numUsers": 4, "state": "Toscana", "gadmCity": "Florence", "foursquareURL": "https://foursquare.com/v/baldi-fratelli-azienda-agricola-di-floricultura/51e878ea498ef8cc532ace5b", "coordinates": [11.225972557340985, 43.8207257595021], "city": "Firenze", "country": "Italia", "numTips": 5, "numCheckins": 116, "_id": "51e878ea498ef8cc532ace5b", "name": "Baldi Fratelli Azienda Agricola Di Floricultura", "categories": [{"primary": true, "id": "4eb1c0253b7b52c0e1adc2e9", "name": "Garden Center"}], "postalCode": "50141"}
{"numUsers": 7, "state": "Toscana", "gadmCity": "Florence", "categories": [{"primary": true, "id": "4bf58dd8d48988d12b951735", "name": "Bus Line"}], "coordinates": [11.248596126162186, 43.77530040391073], "city": "Firenze", "country": "Italia", "numTips": 0, "foursquareURL": "https://foursquare.com/v/bus-firenze-pisa/523dae2011d281eaefc0cf7b", "numCheckins": 8, "_id": "523dae2011d281eaefc0cf7b", "name": "Bus Firenze Pisa"}
{"numUsers": 198, "state": "Toscana", "gadmCity": "Florence", "foursquareURL": "https://foursquare.com/v/cucina-torcicoda/525ee9ab11d223a40a098498", "coordinates": [11.260496605555259, 43.76943075496553], "city": "Firenze", "country": "Italia", "numTips": 20, "numCheckins": 236, "_id": "525ee9ab11d223a40a098498", "name": "Cucina Torcicoda", "categories": [{"primary": true, "id": "4bf58dd8d48988d110941735", "name": "Italian Restaurant"}], "postalCode": "50122"}
{"numUsers": 1428, "state": "Toscana", "gadmCity": "Florence", "foursquareURL": "https://foursquare.com/v/eataly/52ad90c611d26d7b07a8afb3", "coordinates": [11.255852480927922, 43.77406066205337], "city": "Firenze", "country": "Italia", "numTips": 49, "numCheckins": 1788, "_id": "52ad90c611d26d7b07a8afb3", "name": "Eataly", "categories": [{"primary": true, "id": "4bf58dd8d48988d1f5941735", "name": "Gourmet Shop"}], "postalCode": "50129"}
{"numUsers": 40, "state": "Toscana", "gadmCity": "Florence", "categories": [{"primary": true, "id": "4f4531504b9074f6e4fb0102", "name": "Platform"}], "coordinates": [11.247267789288665, 43.777968220545226], "city": "Firenze", "country": "Italia", "numTips": 0, "foursquareURL": "https://foursquare.com/v/binario-9/52b4800c11d2d699651984f1", "numCheckins": 49, "_id": "52b4800c11d2d699651984f1", "name": "Binario 9"}
{"numUsers": 6, "state": "Toscana", "gadmCity": "Florence", "foursquareURL": "https://foursquare.com/v/gelateria-anacleto/52d8fa6811d2d1d02b1e5a02", "coordinates": [11.17883563041687, 43.793355679304405], "city": "Firenze", "country": "Italia", "numTips": 0, "numCheckins": 6, "_id": "52d8fa6811d2d1d02b1e5a02", "name": "Gelateria anacleto", "categories": [{"primary": true, "id": "4bf58dd8d48988d1c9941735", "name": "Ice Cream Shop"}], "postalCode": "50100"}
{"numUsers": 21, "state": "Toscana", "gadmCity": "Florence", "categories": [{"primary": true, "id": "4bf58dd8d48988d1c4941735", "name": "Restaurant"}], "coordinates": [11.235800555880948, 43.77130253490542], "city": "Firenze", "country": "Italia", "numTips": 2, "foursquareURL": "https://foursquare.com/v/acc%C3%A0-ristopizzaperitivo/52e8fe0a11d2f84fab179a96", "numCheckins": 32, "_id": "52e8fe0a11d2f84fab179a96", "name": "Acc\u00e0 Ristopizzaperitivo"}
{"numUsers": 66, "state": "Toscana", "gadmCity": "Florence", "foursquareURL": "https://foursquare.com/v/accademia-di-belle-arti/52ea5cc9498ebbd25cfd479a", "coordinates": [11.258210495550834, 43.776464027700435], "city": "Firenze", "country": "Italia", "numTips": 3, "numCheckins": 66, "_id": "52ea5cc9498ebbd25cfd479a", "name": "Accademia di belle arti", "categories": [{"primary": true, "id": "4bf58dd8d48988d18f941735", "name": "Art Museum"}], "postalCode": "50123"}
{"numUsers": 44, "state": "Toscana", "gadmCity": "Florence", "foursquareURL": "https://foursquare.com/v/ara-%C3%A8-sicilia/52fa35a4498e9ba8c1316a00", "coordinates": [11.258542614795207, 43.77622561435542], "city": "Firenze", "country": "Italia", "numTips": 10, "numCheckins": 52, "_id": "52fa35a4498e9ba8c1316a00", "name": "ARA': \u00e8 Sicilia", "categories": [{"primary": true, "id": "4bf58dd8d48988d1c9941735", "name": "Ice Cream Shop"}], "postalCode": "50121"}
{"numUsers": 187, "state": "Toscana", "gadmCity": "Florence", "foursquareURL": "https://foursquare.com/v/pescheria-san-pietro/530e5375498e5bcefd7b5c89", "coordinates": [11.246985519999784, 43.77614365523004], "city": "Firenze", "country": "Italia", "numTips": 17, "numCheckins": 200, "_id": "530e5375498e5bcefd7b5c89", "name": "Pescheria San Pietro", "categories": [{"primary": true, "id": "4bf58dd8d48988d1ce941735", "name": "Seafood Restaurant"}], "postalCode": "50123"}
{"numUsers": 1, "state": "Toscana", "gadmCity": "Florence", "foursquareURL": "https://foursquare.com/v/tregoo/53369681498e8e75f9e434ab", "coordinates": [11.237150875298646, 43.7898468481988], "city": "Firenze", "country": "Italia", "numTips": 1, "numCheckins": 16, "_id": "53369681498e8e75f9e434ab", "name": "Tregoo", "categories": [{"primary": true, "id": "4bf58dd8d48988d124941735", "name": "Office"}], "postalCode": "50127"}
{"numUsers": 74, "state": "Toscana", "gadmCity": "Florence", "categories": [{"primary": true, "id": "4bf58dd8d48988d128951735", "name": "Gift Shop"}], "coordinates": [11.25962201002711, 43.775525325297295], "city": "Firenze", "country": "Italia", "numTips": 4, "foursquareURL": "https://foursquare.com/v/tiger/53382f55498eadeadfaf1b72", "numCheckins": 87, "_id": "53382f55498eadeadfaf1b72", "name": "Tiger"}
{"numUsers": 227, "state": "Toscana", "gadmCity": "Florence", "categories": [{"primary": true, "id": "4bf58dd8d48988d18f941735", "name": "Art Museum"}], "coordinates": [11.256046212407558, 43.769589873391254], "city": "Firenze", "country": "Italia", "numTips": 3, "foursquareURL": "https://foursquare.com/v/museo-di-palazzo-vecchio/53524fb4498eb5c71458096a", "numCheckins": 238, "_id": "53524fb4498eb5c71458096a", "name": "Museo di Palazzo Vecchio"}
{"numUsers": 62, "state": "Toscana", "gadmCity": "Florence", "foursquareURL": "https://foursquare.com/v/caff%C3%A8-cibr%C3%A8o/53623c32498e5839aa56d9fd", "coordinates": [11.266404, 43.771067], "city": "Firenze", "country": "Italia", "numTips": 6, "numCheckins": 70, "_id": "53623c32498e5839aa56d9fd", "name": "Caff\u00e8 Cibr\u00e8o", "categories": [{"primary": true, "id": "4bf58dd8d48988d16d941735", "name": "Caf\u00e9"}], "postalCode": "50122"}
{"numUsers": 299, "state": "Toscana", "gadmCity": "Florence", "foursquareURL": "https://foursquare.com/v/brewdog-firenze/538371df498e11151199b25d", "coordinates": [11.252424716949463, 43.77537797241041], "city": "Firenze", "country": "Italia", "numTips": 26, "numCheckins": 390, "_id": "538371df498e11151199b25d", "name": "BrewDog Firenze", "categories": [{"primary": true, "id": "4bf58dd8d48988d11b941735", "name": "Pub"}], "postalCode": "50123"}
{"numUsers": 66, "state": "Toscana", "gadmCity": "Florence", "foursquareURL": "https://foursquare.com/v/il-gelato-gourmet--marco-ottaviano/53bd6dee498e5114f57fec17", "coordinates": [11.261343531365153, 43.77138488685045], "city": "Firenze", "country": "Italia", "numTips": 10, "numCheckins": 70, "_id": "53bd6dee498e5114f57fec17", "name": "il Gelato Gourmet - Marco Ottaviano", "categories": [{"primary": true, "id": "4bf58dd8d48988d1c9941735", "name": "Ice Cream Shop"}], "postalCode": "50122"}
{"numUsers": 6249, "state": "Toscana", "gadmCity": "Florence", "foursquareURL": "https://foursquare.com/v/mercato-centrale-firenze/53c4ec32498e36ea2822223d", "coordinates": [11.25326156616211, 43.77659421354724], "city": "Firenze", "country": "Italia", "numTips": 203, "numCheckins": 8192, "_id": "53c4ec32498e36ea2822223d", "name": "Mercato Centrale Firenze", "categories": [{"primary": true, "id": "4bf58dd8d48988d1f5941735", "name": "Gourmet Shop"}], "postalCode": "50121"}
{"numUsers": 102, "state": "Toscana", "gadmCity": "Florence", "foursquareURL": "https://foursquare.com/v/ristorante-konnubio/53daab23498e17a67ad6705e", "coordinates": [11.253123674915171, 43.774184869257745], "city": "Firenze", "country": "Italia", "numTips": 11, "numCheckins": 113, "_id": "53daab23498e17a67ad6705e", "name": "Ristorante KONNUBIO", "categories": [{"primary": true, "id": "4bf58dd8d48988d1c4941735", "name": "Restaurant"}], "postalCode": "50123"}
{"numUsers": 2, "state": "Toscana", "gadmCity": "Florence", "categories": [], "coordinates": [11.256001930893095, 43.775934542267045], "city": "Firenze", "country": "Italia", "numTips": 0, "foursquareURL": "https://foursquare.com/v/3nity-srl/5445f962498e9b3efe373d10", "numCheckins": 16, "_id": "5445f962498e9b3efe373d10", "name": "3nity srl"}
{"numUsers": 3, "state": "Toscana", "gadmCity": "Florence", "foursquareURL": "https://foursquare.com/v/pizza-a-taglio-ricciardi/54535288498e46628ea56eef", "coordinates": [11.193147719518565, 43.794346394806674], "city": "Firenze", "country": "Italia", "numTips": 0, "numCheckins": 608, "_id": "54535288498e46628ea56eef", "name": "Pizza a Taglio Ricciardi", "categories": [{"primary": true, "id": "4bf58dd8d48988d1ca941735", "name": "Pizza Place"}], "postalCode": "50145"}
{"numUsers": 7, "state": "Toscana", "gadmCity": "Florence", "foursquareURL": "https://foursquare.com/v/teatro-dellozio-firenze/5495c5bf498e8876107c1ecd", "coordinates": [11.256068353172209, 43.77038355821855], "city": "Firenze", "country": "Italia", "numTips": 1, "numCheckins": 7, "_id": "5495c5bf498e8876107c1ecd", "name": "Teatro dell'Ozio Firenze", "categories": [{"primary": true, "id": "4bf58dd8d48988d1dc931735", "name": "Tea Room"}], "postalCode": "50122"}
{"numUsers": 6, "state": "Toscana", "gadmCity": "Florence", "foursquareURL": "https://foursquare.com/v/ristorante-pizzeria-stadio/54a2cf78498e54b440910d47", "coordinates": [11.280763918913506, 43.780239011796205], "city": "Firenze", "country": "Italia", "numTips": 0, "numCheckins": 11, "_id": "54a2cf78498e54b440910d47", "name": "Ristorante Pizzeria Stadio", "categories": [{"primary": true, "id": "4bf58dd8d48988d1c4941735", "name": "Restaurant"}], "postalCode": "50137"}
{"numUsers": 4, "state": "Toscana", "gadmCity": "Florence", "categories": [{"primary": true, "id": "507c8c4091d498d9fc8c67a9", "name": "Public Art"}], "coordinates": [11.241855000903684, 43.75994312206641], "city": "Firenze", "country": "Italia", "numTips": 0, "foursquareURL": "https://foursquare.com/v/ex-manifattura-tabacchi-firenze/54b454cb498e339efa8e1a4c", "numCheckins": 5, "_id": "54b454cb498e339efa8e1a4c", "name": "Ex Manifattura Tabacchi Firenze"}
{"numUsers": 42, "state": "Toscana", "gadmCity": "Florence", "foursquareURL": "https://foursquare.com/v/irene/551e2007498eb54744ae4f84", "coordinates": [11.254280502361045, 43.771766243486745], "city": "Firenze", "country": "Italia", "numTips": 2, "numCheckins": 43, "_id": "551e2007498eb54744ae4f84", "name": "Irene", "categories": [{"primary": true, "id": "4bf58dd8d48988d110941735", "name": "Italian Restaurant"}], "postalCode": "50123"}
{"numUsers": 50, "state": "Toscana", "gadmCity": "Florence", "categories": [{"primary": true, "id": "50aaa4314b90af0d42d5de10", "name": "Island"}], "coordinates": [11.306805817847433, 43.765518781973626], "city": "Firenze", "country": "Italia", "numTips": 1, "foursquareURL": "https://foursquare.com/v/florence-tuscany/5520edd1498e62c5cbc492e4", "numCheckins": 51, "_id": "5520edd1498e62c5cbc492e4", "name": "Florence, Tuscany"}
{"numUsers": 35, "state": "Toscana", "gadmCity": "Florence", "categories": [{"primary": true, "id": "4bf58dd8d48988d164941735", "name": "Plaza"}], "coordinates": [11.291189827139688, 43.78984433256507], "city": "Firenze", "country": "Italia", "numTips": 0, "foursquareURL": "https://foursquare.com/v/florence/55211c66498efd9b94e1ef62", "numCheckins": 36, "_id": "55211c66498efd9b94e1ef62", "name": "Florence"}
{"numUsers": 5, "state": "Toscana", "gadmCity": "Florence", "foursquareURL": "https://foursquare.com/v/bb-antica-posta/55276d8c498e00d18e354e75", "coordinates": [11.24329, 43.781976], "city": "Firenze", "country": "Italia", "numTips": 1, "numCheckins": 6, "_id": "55276d8c498e00d18e354e75", "name": "B&B Antica Posta", "categories": [{"primary": true, "id": "4bf58dd8d48988d1f8931735", "name": "Bed & Breakfast"}], "postalCode": "50144"}
{"numUsers": 11, "state": "Toscana", "gadmCity": "Florence", "foursquareURL": "https://foursquare.com/v/deposito-bagagli/5527fb1f498eb8ced47d40d4", "coordinates": [11.261653519091606, 43.78411048908653], "city": "Firenze", "country": "Italia", "numTips": 0, "numCheckins": 19, "_id": "5527fb1f498eb8ced47d40d4", "name": "Deposito Bagagli", "categories": [{"primary": true, "id": "4bf58dd8d48988d116941735", "name": "Bar"}], "postalCode": "50129"}
{"numUsers": 107, "state": "Toscana", "gadmCity": "Florence", "categories": [{"primary": true, "id": "4bf58dd8d48988d16c941735", "name": "Burger Joint"}], "coordinates": [11.255046, 43.773086], "city": "Firenze", "country": "Italia", "numTips": 3, "foursquareURL": "https://foursquare.com/v/move-on/552913c8498eb8ced4947188", "numCheckins": 109, "_id": "552913c8498eb8ced4947188", "name": "Move On"}
{"numUsers": 32, "state": "Toscana", "gadmCity": "Florence", "foursquareURL": "https://foursquare.com/v/fuoco-matto/55476626498e4eaf9515ae9b", "coordinates": [11.25501036643982, 43.77953787950744], "city": "Firenze", "country": "Italia", "numTips": 5, "numCheckins": 32, "_id": "55476626498e4eaf9515ae9b", "name": "Fuoco Matto", "categories": [{"primary": true, "id": "4bf58dd8d48988d1ca941735", "name": "Pizza Place"}], "postalCode": "50129"}
{"numUsers": 1, "state": "Toscana", "gadmCity": "Florence", "foursquareURL": "https://foursquare.com/v/winet-srl/55757dae498e842197f34e50", "coordinates": [11.222729975096778, 43.79211949821528], "city": "Firenze", "country": "Italia", "numTips": 0, "numCheckins": 9, "_id": "55757dae498e842197f34e50", "name": "WiNet S.r.l.", "categories": [{"primary": true, "id": "4bf58dd8d48988d124941735", "name": "Office"}], "postalCode": "50127"}
{"numUsers": 5, "state": "Toscana", "gadmCity": "Florence", "foursquareURL": "https://foursquare.com/v/polpa-burger-trattoria/5576fec7498e3cef97d0051b", "coordinates": [11.25483401309526, 43.77632762204396], "city": "Firenze", "country": "Italia", "numTips": 1, "numCheckins": 5, "_id": "5576fec7498e3cef97d0051b", "name": "Polpa Burger Trattoria", "categories": [{"primary": true, "id": "4bf58dd8d48988d16c941735", "name": "Burger Joint"}], "postalCode": "50123"}
{"numUsers": 0, "state": "Toscana", "gadmCity": "Florence", "foursquareURL": "https://foursquare.com/v/palazzo-mannaioni-suites/557ac933498e133c27a99e48", "coordinates": [11.247064, 43.768222], "city": "Firenze", "country": "Italia", "numTips": 0, "numCheckins": 0, "_id": "557ac933498e133c27a99e48", "name": "Palazzo Mannaioni Suites", "categories": [{"primary": true, "id": "4d954b06a243a5684965b473", "name": "Residential Building (Apartment / Condo)"}], "postalCode": "50125"}
{"numUsers": 3, "state": "Toscana", "gadmCity": "Florence", "foursquareURL": "https://foursquare.com/v/burchiello-bb/5587ff0c498e2138f61be1c3", "coordinates": [11.237027, 43.768063], "city": "Firenze", "country": "Italia", "numTips": 0, "numCheckins": 3, "_id": "5587ff0c498e2138f61be1c3", "name": "Burchiello B&B", "categories": [{"primary": true, "id": "4bf58dd8d48988d1f8931735", "name": "Bed & Breakfast"}], "postalCode": "50124"}
{"numUsers": 2, "state": "Toscana", "gadmCity": "Florence", "categories": [{"primary": true, "id": "4bf58dd8d48988d17e941735", "name": "Indie Movie Theater"}], "coordinates": [11.224702, 43.786342], "city": "Firenze", "country": "Italia", "numTips": 0, "foursquareURL": "https://foursquare.com/v/puccini-garden/558da8f4498e450289e7646b", "numCheckins": 2, "_id": "558da8f4498e450289e7646b", "name": "Puccini Garden"}
{"numUsers": 1, "state": "Toscana", "gadmCity": "Florence", "foursquareURL": "https://foursquare.com/v/crossfit-efesto/558e998c498ede18a51bcb71", "coordinates": [11.24268, 43.804452], "city": "Firenze", "country": "Italia", "numTips": 0, "numCheckins": 1, "_id": "558e998c498ede18a51bcb71", "name": "CrossFit Efesto", "categories": [{"primary": true, "id": "4bf58dd8d48988d176941735", "name": "Gym"}], "postalCode": "50134"}
